[{"name":"StumbleUpon","category_code":"web","great1million":"YES","description":"","address1":"","address2":"","zip_code":"","city":"San Francisco","state_code":"CA","country_code":"USA","latitude":37.775196,"longitude":-122.419204,"location":{"type":"Point","coordinates":[-122.419204,37.775196]}},{"name":"Facebook","category_code":"social","great1million":"YES","description":"Headquarters","address1":"1601 Willow Road","address2":"","zip_code":"94025","city":"Menlo Park","state_code":"CA","country_code":"USA","latitude":37.41605,"longitude":-122.151801,"location":{"type":"Point","coordinates":[-122.151801,37.41605]}},{"name":"Facebook","category_code":"social","great1million":"YES","description":"New York","address1":"340 Madison Ave","address2":"","zip_code":"10017","city":"New York","state_code":"NY","country_code":"USA","latitude":40.7557162,"longitude":-73.9792469,"location":{"type":"Point","coordinates":[-73.9792469,40.7557162]}},{"name":"Twitter","category_code":"social","great1million":"YES","description":"","address1":"1355 Market St.","address2":"","zip_code":"94103","city":"San Francisco","state_code":"CA","country_code":"USA","latitude":37.7768052,"longitude":-122.4169244,"location":{"type":"Point","coordinates":[-122.4169244,37.7768052]}},{"name":"LifeLock","category_code":"security","great1million":"YES","description":"","address1":"60 E. Rio Salado Pkwy, Suite 400","address2":"","zip_code":"85281","city":"Tempe","state_code":"AZ","country_code":"USA","latitude":33.429859,"longitude":-111.938739,"location":{"type":"Point","coordinates":[-111.938739,33.429859]}},{"name":"blinkx","category_code":"games_video","great1million":"YES","description":null,"address1":"1 Market Street","address2":"19th Floor, Spear Tower","zip_code":"94105","city":"San Francisco","state_code":"CA","country_code":"USA","latitude":37.793819,"longitude":-122.395089,"location":{"type":"Point","coordinates":[-122.395089,37.793819]}},{"name":"Yelp","category_code":"search","great1million":"YES","description":"","address1":"706 Mission Street","address2":"7th Floor","zip_code":"94103","city":"San Francisco","state_code":"CA","country_code":"USA","latitude":37.786183,"longitude":-122.402195,"location":{"type":"Point","coordinates":[-122.402195,37.786183]}},{"name":"LinkedIn","category_code":"social","great1million":"YES","description":"HQ","address1":"2029 Stierlin Ct","address2":"","zip_code":"94043","city":"Mountain View","state_code":"CA","country_code":"USA","latitude":37.423258,"longitude":-122.073635,"location":{"type":"Point","coordinates":[-122.073635,37.423258]}},{"name":"Carbonite","category_code":"network_hosting","great1million":"YES","description":"Headquarters","address1":"","address2":"","zip_code":"02116","city":"Boston","state_code":"MA","country_code":"USA","latitude":42.350571,"longitude":-71.076869,"location":{"type":"Point","coordinates":[-71.076869,42.350571]}},{"name":"Conduit","category_code":"advertising","great1million":"YES","description":"","address1":"950 Tower Lane","address2":"Suite 1788","zip_code":"94404","city":"Foster City","state_code":"CA","country_code":"USA","latitude":37.561877,"longitude":-122.325248,"location":{"type":"Point","coordinates":[-122.325248,37.561877]}},{"name":"Bazaarvoice","category_code":"software","great1million":"YES","description":"Head Office","address1":"3900 N Capital of Texas Hwy","address2":"","zip_code":"78746","city":"Austin","state_code":"TX","country_code":"USA","latitude":30.407545,"longitude":-97.717667,"location":{"type":"Point","coordinates":[-97.717667,30.407545]}},{"name":"Brightcove","category_code":"enterprise","great1million":"YES","description":"Headquarters","address1":"One Cambridge Center","address2":"","zip_code":"02142","city":"Cambridge","state_code":"MA","country_code":"USA","latitude":42.362993,"longitude":-71.086596,"location":{"type":"Point","coordinates":[-71.086596,42.362993]}},{"name":"Dropbox","category_code":"software","great1million":"YES","description":"Headquarters","address1":"","address2":"185 Berry St 4th Floor","zip_code":"94107","city":"San Francisco","state_code":"CA","country_code":"USA","latitude":37.7909427,"longitude":-122.4084994,"location":{"type":"Point","coordinates":[-122.4084994,37.7909427]}},{"name":"KIT digital","category_code":"enterprise","great1million":"YES","description":"New York Office","address1":"26 W 17th Street","address2":"","zip_code":"10011","city":"New York","state_code":"NY","country_code":"USA","latitude":40.751816,"longitude":-73.971655,"location":{"type":"Point","coordinates":[-73.971655,40.751816]}},{"name":"MySpace","category_code":"network_hosting","great1million":"YES","description":"","address1":"8391 Beverly Blvd.","address2":"#349","zip_code":"90048","city":"Beverly Hills","state_code":"CA","country_code":"USA","latitude":34.076061,"longitude":-118.372953,"location":{"type":"Point","coordinates":[-118.372953,34.076061]}},{"name":"Trulia","category_code":"search","great1million":"YES","description":"World HQ","address1":"116 New Montgomery","address2":"","zip_code":"94501","city":"San Francisco","state_code":"CA","country_code":"USA","latitude":37.766909,"longitude":-122.406676,"location":{"type":"Point","coordinates":[-122.406676,37.766909]}},{"name":"ChannelAdvisor","category_code":"search","great1million":"YES","description":null,"address1":"2701 Aerial Center Parkway","address2":"","zip_code":"27560","city":"Morrisville","state_code":"NC","country_code":"USA","latitude":35.854483,"longitude":-78.815635,"location":{"type":"Point","coordinates":[-78.815635,35.854483]}},{"name":"Adknowledge","category_code":"advertising","great1million":"YES","description":"World Headquarters","address1":"4600 Madison Ave., 10th Floor","address2":"","zip_code":"64112","city":"Kansas City","state_code":"MO","country_code":"USA","latitude":39.044694,"longitude":-94.597896,"location":{"type":"Point","coordinates":[-94.597896,39.044694]}},{"name":"Adknowledge","category_code":"advertising","great1million":"YES","description":"Adknowledge New York","address1":"7 Penn Plaza","address2":"370 Seventh Ave., 17th Fl.","zip_code":"10001","city":"New York","state_code":"NY","country_code":"USA","latitude":40.748901,"longitude":-73.992463,"location":{"type":"Point","coordinates":[-73.992463,40.748901]}},{"name":"Adknowledge","category_code":"advertising","great1million":"YES","description":"Adknowledge San Francisco","address1":"33 New Montgomery St.","address2":"Suite 220","zip_code":"94105","city":"San Francisco","state_code":"CA","country_code":"USA","latitude":37.78866,"longitude":-122.401406,"location":{"type":"Point","coordinates":[-122.401406,37.78866]}},{"name":"Adknowledge","category_code":"advertising","great1million":"YES","description":"Adknowledge Fort Myers","address1":"5220 Summerlin Commons Blvd.","address2":"Suite 501","zip_code":"33907","city":"Fort Myers","state_code":"FL","country_code":"USA","latitude":26.580095,"longitude":-81.879069,"location":{"type":"Point","coordinates":[-81.879069,26.580095]}},{"name":"Marchex","category_code":"mobile","great1million":"YES","description":"Corporate Headquarters","address1":"520 Pike Street","address2":"Suite 2000","zip_code":"98101","city":"Seattle","state_code":"WA","country_code":"USA","latitude":47.611201,"longitude":-122.336825,"location":{"type":"Point","coordinates":[-122.336825,47.611201]}},{"name":"FlowPlay","category_code":"games_video","great1million":"YES","description":"","address1":"114 Alaskan Way South","address2":"Ste. 100","zip_code":"98104","city":"Seattle","state_code":"WA","country_code":"USA","latitude":47.6015315,"longitude":-122.335943,"location":{"type":"Point","coordinates":[-122.335943,47.6015315]}},{"name":"Zillow","category_code":"real_estate","great1million":"YES","description":"World Headquarters","address1":"","address2":"","zip_code":"98101","city":"Seattle","state_code":"WA","country_code":"USA","latitude":47.6011125,"longitude":-122.3293984,"location":{"type":"Point","coordinates":[-122.3293984,47.6011125]}},{"name":"KAYAK","category_code":"search","great1million":"YES","description":"Headquarters","address1":"55 N. Water Street","address2":"Suite 1","zip_code":"06854","city":"Norwalk","state_code":"CT","country_code":"USA","latitude":41.1010914,"longitude":-73.4168779,"location":{"type":"Point","coordinates":[-73.4168779,41.1010914]}},{"name":"TripAdvisor","category_code":"web","great1million":"YES","description":"","address1":"141 Needham Street","address2":"","zip_code":"02464","city":"Newton","state_code":"MA","country_code":"USA","latitude":42.312908,"longitude":-71.212341,"location":{"type":"Point","coordinates":[-71.212341,42.312908]}},{"name":"Oversee","category_code":"web","great1million":"YES","description":"Headquarters","address1":"515 S. Flower Street Suite 4400","address2":"","zip_code":"90071","city":"Los Angeles","state_code":"CA","country_code":"USA","latitude":34.051368,"longitude":-118.256305,"location":{"type":"Point","coordinates":[-118.256305,34.051368]}},{"name":"SuccessFactors","category_code":"enterprise","great1million":"YES","description":null,"address1":"1500 Fashion Island Blvd. Suite 300","address2":null,"zip_code":"94404","city":"San Mateo","state_code":"CA","country_code":"USA","latitude":37.557637,"longitude":-122.285714,"location":{"type":"Point","coordinates":[-122.285714,37.557637]}},{"name":"Zynga","category_code":"games_video","great1million":"YES","description":"SF HQ","address1":"365 Vermont St.","address2":"","zip_code":"94103","city":"San Francisco","state_code":"CA","country_code":"USA","latitude":37.765158,"longitude":-122.404234,"location":{"type":"Point","coordinates":[-122.404234,37.765158]}},{"name":"Amobee","category_code":"advertising","great1million":"YES","description":"","address1":"100 Marine Parkway","address2":"Ste 575","zip_code":"94065","city":"Redwood City","state_code":"CA","country_code":"USA","latitude":37.52845,"longitude":-122.263721,"location":{"type":"Point","coordinates":[-122.263721,37.52845]}},{"name":"LiveUniverse","category_code":"web","great1million":"YES","description":null,"address1":"9255 Sunset Blvd. Suite 1010","address2":"","zip_code":"90069","city":"West Hollywood","state_code":"CA","country_code":"USA","latitude":34.090228,"longitude":-118.393843,"location":{"type":"Point","coordinates":[-118.393843,34.090228]}},{"name":"HipLogic","category_code":"mobile","great1million":"YES","description":"HQ","address1":"39300 Civic Center Dr","address2":"Suite 240","zip_code":"94538","city":"Fremont","state_code":"CA","country_code":"USA","latitude":37.5541073,"longitude":-121.9756765,"location":{"type":"Point","coordinates":[-121.9756765,37.5541073]}},{"name":"Marketo","category_code":"software","great1million":"YES","description":"Marketo Headquarters","address1":"901 Mariners Island Blvd","address2":"Suite 200","zip_code":"94404","city":"San Mateo","state_code":"CA","country_code":"USA","latitude":37.5583,"longitude":-122.301385,"location":{"type":"Point","coordinates":[-122.301385,37.5583]}},{"name":"mediaFORGE","category_code":"advertising","great1million":"YES","description":null,"address1":"6405 South 3000 East Suite 203","address2":"","zip_code":"84121","city":"Salt Lake City","state_code":"UT","country_code":"USA","latitude":40.634468,"longitude":-111.804504,"location":{"type":"Point","coordinates":[-111.804504,40.634468]}},{"name":"Smashwords","category_code":"web","great1million":"YES","description":null,"address1":"15951 Los Gatos Blvd., Ste 16","address2":"","zip_code":"95032","city":"Los Gatos","state_code":"CA","country_code":"USA","latitude":37.23697,"longitude":-121.96254,"location":{"type":"Point","coordinates":[-121.96254,37.23697]}},{"name":"Efficient Frontier","category_code":"advertising","great1million":"YES","description":"Headquarters","address1":"809 Eleventh Avenue","address2":"","zip_code":"94089","city":"Sunnyvale","state_code":"CA","country_code":"USA","latitude":37.4049731,"longitude":-122.0323525,"location":{"type":"Point","coordinates":[-122.0323525,37.4049731]}},{"name":"TrafficZ","category_code":"web","great1million":"YES","description":null,"address1":"11300 W. Olympic Boulevard","address2":"Suite 900","zip_code":"90064","city":"Los Angeles","state_code":"CA","country_code":"USA","latitude":34.037542,"longitude":-118.441178,"location":{"type":"Point","coordinates":[-118.441178,34.037542]}},{"name":"Intelius","category_code":"web","great1million":"YES","description":null,"address1":"500 108th Ave NE","address2":"25th Floor","zip_code":"98004","city":"Bellevue","state_code":"WA","country_code":"USA","latitude":47.614723,"longitude":-122.196262,"location":{"type":"Point","coordinates":[-122.196262,47.614723]}},{"name":"Avaya","category_code":"software","great1million":"YES","description":"California","address1":"4655 Great America Parkway","address2":"","zip_code":"95054","city":"Santa Clara","state_code":"CA","country_code":"USA","latitude":37.398076,"longitude":-121.977333,"location":{"type":"Point","coordinates":[-121.977333,37.398076]}},{"name":"Avaya","category_code":"software","great1million":"YES","description":"HQ","address1":"211 Mt Airy Road","address2":"","zip_code":"07920","city":"Basking Ridge","state_code":"NJ","country_code":"USA","latitude":40.694956,"longitude":-74.577599,"location":{"type":"Point","coordinates":[-74.577599,40.694956]}},{"name":"Vonage","category_code":"mobile","great1million":"YES","description":"Vonage America","address1":"23 Main Street","address2":"","zip_code":"07733","city":"Holmdel","state_code":"NJ","country_code":"USA","latitude":40.34537,"longitude":-74.187967,"location":{"type":"Point","coordinates":[-74.187967,40.34537]}},{"name":"SnagFilms","category_code":"social","great1million":"YES","description":"HQ","address1":"1250 Connecticut Ave","address2":"Suite 420","zip_code":"20036","city":"Washington","state_code":"DC","country_code":"USA","latitude":38.906867,"longitude":-77.042322,"location":{"type":"Point","coordinates":[-77.042322,38.906867]}},{"name":"Black Duck Software","category_code":"software","great1million":"YES","description":"Headquarters","address1":"265 Winter Street","address2":"North Entrance","zip_code":"02451","city":"Waltham","state_code":"MA","country_code":"USA","latitude":42.398916,"longitude":-71.253998,"location":{"type":"Point","coordinates":[-71.253998,42.398916]}},{"name":"Black Duck Software","category_code":"software","great1million":"YES","description":"West Coast Office","address1":"1810 Gateway Drive","address2":"Suite 270","zip_code":"94404","city":"San Mateo","state_code":"CA","country_code":"USA","latitude":37.556152,"longitude":-122.281484,"location":{"type":"Point","coordinates":[-122.281484,37.556152]}},{"name":"Synchronica","category_code":"mobile","great1million":"YES","description":"Synchronica East Coast","address1":"6208 Wyckhurst Court","address2":"","zip_code":"27609","city":"Raleigh","state_code":"NC","country_code":"USA","latitude":35.868807,"longitude":-78.615986,"location":{"type":"Point","coordinates":[-78.615986,35.868807]}},{"name":"Synchronica","category_code":"mobile","great1million":"YES","description":"Synchronica West Coast","address1":"140 Justo Court","address2":"","zip_code":"95008","city":"Campbell","state_code":"CA","country_code":"USA","latitude":37.275604,"longitude":-121.952034,"location":{"type":"Point","coordinates":[-121.952034,37.275604]}},{"name":"Procera Networks","category_code":"mobile","great1million":"YES","description":"U.S. Headquarters","address1":"4121 Clipper Court","address2":"","zip_code":"94538","city":"Fremont","state_code":"CA","country_code":"USA","latitude":37.239588,"longitude":-121.97321,"location":{"type":"Point","coordinates":[-121.97321,37.239588]}},{"name":"Thomson Reuters","category_code":"public_relations","great1million":"YES","description":"","address1":"3 Times Square","address2":"","zip_code":"10036","city":"New York","state_code":"NY","country_code":"USA","latitude":40.7564318,"longitude":-73.9871847,"location":{"type":"Point","coordinates":[-73.9871847,40.7564318]}},{"name":"Inuvo","category_code":"advertising","great1million":"YES","description":"Clearwater, FL","address1":"15500 Lightwave Dr.","address2":"Suite 300","zip_code":"33760","city":"Clearwater","state_code":"FL","country_code":"USA","latitude":27.913011,"longitude":-82.702449,"location":{"type":"Point","coordinates":[-82.702449,27.913011]}},{"name":"Synchronica","category_code":"mobile","great1million":"YES","description":"Synchronica East Coast","address1":"6208 Wyckhurst Court","address2":"","zip_code":"27609","city":"Raleigh","state_code":"NC","country_code":"USA","latitude":35.868807,"longitude":-78.615986,"location":{"type":"Point","coordinates":[-78.615986,35.868807]}},{"name":"Synchronica","category_code":"mobile","great1million":"YES","description":"Synchronica West Coast","address1":"140 Justo Court","address2":"","zip_code":"95008","city":"Campbell","state_code":"CA","country_code":"USA","latitude":37.275604,"longitude":-121.952034,"location":{"type":"Point","coordinates":[-121.952034,37.275604]}},{"name":"Procera Networks","category_code":"mobile","great1million":"YES","description":"U.S. Headquarters","address1":"4121 Clipper Court","address2":"","zip_code":"94538","city":"Fremont","state_code":"CA","country_code":"USA","latitude":37.239588,"longitude":-121.97321,"location":{"type":"Point","coordinates":[-121.97321,37.239588]}},{"name":"Thomson Reuters","category_code":"public_relations","great1million":"YES","description":"","address1":"3 Times Square","address2":"","zip_code":"10036","city":"New York","state_code":"NY","country_code":"USA","latitude":40.7564318,"longitude":-73.9871847,"location":{"type":"Point","coordinates":[-73.9871847,40.7564318]}},{"name":"Inuvo","category_code":"advertising","great1million":"YES","description":"Clearwater, FL","address1":"15500 Lightwave Dr.","address2":"Suite 300","zip_code":"33760","city":"Clearwater","state_code":"FL","country_code":"USA","latitude":27.913011,"longitude":-82.702449,"location":{"type":"Point","coordinates":[-82.702449,27.913011]}},{"name":"Groupon","category_code":"web","great1million":"YES","description":"HQ","address1":"600 W. Chicago Ave","address2":"Suite 400","zip_code":"60654","city":"Chicago","state_code":"IL","country_code":"USA","latitude":41.8965162,"longitude":-87.643622,"location":{"type":"Point","coordinates":[-87.643622,41.8965162]}},{"name":"SolarCity","category_code":"cleantech","great1million":"YES","description":"HQ","address1":"3055 Clearview Way","address2":"","zip_code":"94402","city":"San Mateo","state_code":"CA","country_code":"USA","latitude":37.563039,"longitude":-122.277639,"location":{"type":"Point","coordinates":[-122.277639,37.563039]}},{"name":"Vox Media","category_code":"news","great1million":"YES","description":"","address1":"1201 Connecticut Avenue NW","address2":"11th Floor","zip_code":"20036","city":"Washington","state_code":"DC","country_code":"USA","latitude":38.898713,"longitude":-77.022422,"location":{"type":"Point","coordinates":[-77.022422,38.898713]}},{"name":"Centro","category_code":"advertising","great1million":"YES","description":"HQ","address1":"222 W Hubbard St.","address2":"Suite 400","zip_code":"60654","city":"Chicago","state_code":"IL","country_code":"USA","latitude":41.889853,"longitude":-87.6355433,"location":{"type":"Point","coordinates":[-87.6355433,41.889853]}},{"name":"Centro","category_code":"advertising","great1million":"YES","description":"East","address1":"22 West 21st Street","address2":"Floor 7","zip_code":"10010","city":"New York","state_code":"NY","country_code":"USA","latitude":40.7408753,"longitude":-73.9920174,"location":{"type":"Point","coordinates":[-73.9920174,40.7408753]}},{"name":"Centro","category_code":"advertising","great1million":"YES","description":"South","address1":"2207 Commerce Street","address2":"","zip_code":"75201","city":"Dallas","state_code":"TX","country_code":"USA","latitude":32.7819239,"longitude":-96.790514,"location":{"type":"Point","coordinates":[-96.790514,32.7819239]}},{"name":"Centro","category_code":"advertising","great1million":"YES","description":"West","address1":"2500 Broadway Street","address2":"Building F, Suite F-125","zip_code":"90404","city":"Santa Monica","state_code":"CA","country_code":"USA","latitude":34.0312388,"longitude":-118.4735062,"location":{"type":"Point","coordinates":[-118.4735062,34.0312388]}},{"name":"LogMeIn","category_code":"software","great1million":"YES","description":"World Headquarters","address1":"500 Unicorn Park Drive","address2":"","zip_code":"01801","city":"Woburn","state_code":"MA","country_code":"USA","latitude":42.486535,"longitude":-71.115413,"location":{"type":"Point","coordinates":[-71.115413,42.486535]}},{"name":"FireEye","category_code":"security","great1million":"YES","description":"HQ","address1":"1440 McCarthy Blvd.","address2":"","zip_code":"95035","city":"Milpitas","state_code":"CA","country_code":"USA","latitude":37.4102801,"longitude":-121.9210492,"location":{"type":"Point","coordinates":[-121.9210492,37.4102801]}},{"name":"Proofpoint","category_code":"software","great1million":"YES","description":"","address1":"892 Ross Drive","address2":"","zip_code":"94089","city":"Sunnyvale","state_code":"CA","country_code":"USA","latitude":37.400751,"longitude":-122.031591,"location":{"type":"Point","coordinates":[-122.031591,37.400751]}},{"name":"PixelFish","category_code":"advertising","great1million":"YES","description":"PixelFish, Inc.","address1":"21250 Hawthorne Blvd","address2":"Suite 770","zip_code":"90503","city":"Hawthorne","state_code":"CA","country_code":"USA","latitude":33.84406,"longitude":-118.322959,"location":{"type":"Point","coordinates":[-118.322959,33.84406]}},{"name":"YouGov","category_code":"consulting","great1million":"YES","description":"PaloAlto Office","address1":"285 Hamilton Avenue","address2":"Suite 200","zip_code":"94301","city":"Palo Alto","state_code":"CA","country_code":"USA","latitude":37.445111,"longitude":-122.160779,"location":{"type":"Point","coordinates":[-122.160779,37.445111]}},{"name":"Spreadtrum Communications","category_code":null,"great1million":"YES","description":"","address1":"5960 Cornerstone Court,","address2":"Suite 200","zip_code":"92121","city":"San Diego","state_code":"CA","country_code":"USA","latitude":32.895267,"longitude":-117.191342,"location":{"type":"Point","coordinates":[-117.191342,32.895267]}},{"name":"Riverbed Technology","category_code":"software","great1million":"YES","description":"Headquarters","address1":"199 Fremont St.","address2":"","zip_code":"94105","city":"San Francisco","state_code":"CA","country_code":"USA","latitude":37.7892685,"longitude":-122.3951844,"location":{"type":"Point","coordinates":[-122.3951844,37.7892685]}},{"name":"ZVUE","category_code":null,"great1million":"YES","description":"","address1":"41 Decatur St.","address2":"","zip_code":"94103","city":"San Francisco","state_code":"CA","country_code":"USA","latitude":37.772386,"longitude":-122.405756,"location":{"type":"Point","coordinates":[-122.405756,37.772386]}},{"name":"WANdisco","category_code":"software","great1million":"YES","description":"US HQ","address1":"5000 Executive Pkwy","address2":"Suite 205","zip_code":"94583","city":"San Ramon","state_code":"CA","country_code":"USA","latitude":37.769205,"longitude":-121.966395,"location":{"type":"Point","coordinates":[-121.966395,37.769205]}},{"name":"Netezza","category_code":"enterprise","great1million":"YES","description":"corporate headquarters","address1":"26 Forest Street","address2":"","zip_code":"01752","city":"Marlborough","state_code":"MA","country_code":"USA","latitude":42.3334658,"longitude":-71.5702804,"location":{"type":"Point","coordinates":[-71.5702804,42.3334658]}},{"name":"Fusion-io","category_code":"enterprise","great1million":"YES","description":"Headquarters","address1":"6350 South 3000 East 6th Floor","address2":"","zip_code":"84121","city":"Salt Lake City","state_code":"UT","country_code":"USA","latitude":40.756352,"longitude":-111.871802,"location":{"type":"Point","coordinates":[-111.871802,40.756352]}},{"name":"Fusion-io","category_code":"enterprise","great1million":"YES","description":"Sales","address1":"2130 Gold Street","address2":"Suite 200","zip_code":"95002","city":"Alviso","state_code":"CA","country_code":"USA","latitude":37.4194816,"longitude":-121.9747667,"location":{"type":"Point","coordinates":[-121.9747667,37.4194816]}},{"name":"Idhasoft","category_code":"enterprise","great1million":"YES","description":"Georgia (HQ)","address1":"5655 Peachtree Parkway","address2":"Suite 200","zip_code":"30092","city":"Norcross","state_code":"GA","country_code":"USA","latitude":33.9660312,"longitude":-84.2233569,"location":{"type":"Point","coordinates":[-84.2233569,33.9660312]}},{"name":"Playdom","category_code":"games_video","great1million":"YES","description":"Palo Alto - Headquarters","address1":"395 Page Mill Road","address2":"2nd Floor","zip_code":"94306","city":"Palo Alto","state_code":"CA","country_code":"USA","latitude":37.393536,"longitude":-122.076747,"location":{"type":"Point","coordinates":[-122.076747,37.393536]}},{"name":"Millennial Media","category_code":"advertising","great1million":"YES","description":"Headquarters","address1":"2400 Boston Street, Suite 301","address2":"The Signature Building","zip_code":"21224","city":"Baltimore","state_code":"MD","country_code":"USA","latitude":39.281734,"longitude":-76.581864,"location":{"type":"Point","coordinates":[-76.581864,39.281734]}},{"name":"Social Solutions","category_code":"software","great1million":"YES","description":"Headquarters","address1":"2400 Boston Street","address2":"Suite 360","zip_code":"21224","city":"Baltimore","state_code":"MD","country_code":"USA","latitude":39.281734,"longitude":-76.581864,"location":{"type":"Point","coordinates":[-76.581864,39.281734]}},{"name":"Zipcar","category_code":"transportation","great1million":"YES","description":"","address1":"1157 West Peachtree Street","address2":"","zip_code":"30309","city":"NW Atlanta","state_code":"GA","country_code":"USA","latitude":33.7862629,"longitude":-84.3877936,"location":{"type":"Point","coordinates":[-84.3877936,33.7862629]}},{"name":"Green Courte Partners","category_code":null,"great1million":"YES","description":"","address1":"560 Oakwood Avenue, Suite 100","address2":"","zip_code":"60045","city":"Lake Forest","state_code":"IL","country_code":"USA","latitude":42.249886,"longitude":-87.842009,"location":{"type":"Point","coordinates":[-87.842009,42.249886]}},{"name":"Clovis Oncology","category_code":"biotech","great1million":"YES","description":"HQ","address1":"2525 28th Street","address2":"Suite 100","zip_code":"80301","city":"Boulder","state_code":"CO","country_code":"USA","latitude":40.026,"longitude":-105.259041,"location":{"type":"Point","coordinates":[-105.259041,40.026]}},{"name":"INRIX","category_code":"software","great1million":"YES","description":"Headquarters","address1":"10210 NE Points Drive","address2":"","zip_code":"98033","city":"Kirkland","state_code":"WA","country_code":"USA","latitude":47.6434969,"longitude":-122.2033998,"location":{"type":"Point","coordinates":[-122.2033998,47.6434969]}},{"name":"CrowdGather","category_code":"web","great1million":"YES","description":"HQ","address1":"20300 Ventura Blvd. Suite 330","address2":"","zip_code":"91364","city":"Woodland Hills","state_code":"CA","country_code":"USA","latitude":34.168955,"longitude":-118.575293,"location":{"type":"Point","coordinates":[-118.575293,34.168955]}},{"name":"Testplant","category_code":"software","great1million":"YES","description":"TestPlant","address1":"3000 Pearl Street","address2":"","zip_code":"80301","city":"Boulder","state_code":"CO","country_code":"USA","latitude":40.0230047,"longitude":-105.2532841,"location":{"type":"Point","coordinates":[-105.2532841,40.0230047]}},{"name":"DG FastChannel","category_code":null,"great1million":"YES","description":"HQ","address1":"750 West John Carpenter Freeway","address2":"Suite 700","zip_code":"75039","city":"Irving","state_code":"TX","country_code":"USA","latitude":32.8856922,"longitude":-96.9549288,"location":{"type":"Point","coordinates":[-96.9549288,32.8856922]}},{"name":"Axway","category_code":"software","great1million":"YES","description":"Corporate Headquarters","address1":"6811 E. Mayo Blvd.,","address2":"Suite 400","zip_code":"85054","city":"Phoenix","state_code":"AZ","country_code":"USA","latitude":33.6552471,"longitude":-111.9353417,"location":{"type":"Point","coordinates":[-111.9353417,33.6552471]}},{"name":"Everyday Solutions","category_code":"mobile","great1million":"YES","description":"HQ","address1":"54 Baker Avenue","address2":"Suite 300","zip_code":"01742","city":"Concord","state_code":"MA","country_code":"USA","latitude":42.4623551,"longitude":-71.3797358,"location":{"type":"Point","coordinates":[-71.3797358,42.4623551]}},{"name":"InfoLogix","category_code":"enterprise","great1million":"YES","description":"","address1":"101 East County Line Road","address2":"Suite 210","zip_code":"19040","city":"Hatboro","state_code":"PA","country_code":"USA","latitude":40.1923295,"longitude":-75.1069232,"location":{"type":"Point","coordinates":[-75.1069232,40.1923295]}},{"name":"optionsXpress","category_code":"software","great1million":"YES","description":"","address1":"311 West Monroe Street","address2":"Suite 1000","zip_code":"60606","city":"Chicago","state_code":"IL","country_code":"USA","latitude":41.8806258,"longitude":-87.6356066,"location":{"type":"Point","coordinates":[-87.6356066,41.8806258]}},{"name":"Axon Solutions","category_code":"software","great1million":"YES","description":"","address1":"15 Exchange Place","address2":"Suite 730","zip_code":"07302","city":"Jersey City","state_code":"NJ","country_code":"USA","latitude":40.715887,"longitude":-74.033251,"location":{"type":"Point","coordinates":[-74.033251,40.715887]}}]