[{"name":"Fox Interactive Media","category_code":"web","description":"","address1":"407 N Maple Dr","address2":"","zip_code":"90210","city":"Beverly Hills","state_code":"CA","country_code":"USA","latitude":34.076179,"longitude":-118.39417,"location":{"type":"Point","coordinates":[-118.39417,34.076179]}},{"name":"StumbleUpon","category_code":"web","description":"","address1":"","address2":"","zip_code":"","city":"San Francisco","state_code":"CA","country_code":"USA","latitude":37.775196,"longitude":-122.419204,"location":{"type":"Point","coordinates":[-122.419204,37.775196]}},{"name":"Viacom","category_code":"web","description":"HQ","address1":"1515 Broadway","address2":"","zip_code":"10036","city":"New York","state_code":"NY","country_code":"USA","latitude":40.757725,"longitude":-73.986011,"location":{"type":"Point","coordinates":[-73.986011,40.757725]}},{"name":"eBay","category_code":"web","description":"Headquarters","address1":"2145 Hamilton Avenue","address2":"","zip_code":"95125","city":"San Jose","state_code":"CA","country_code":"USA","latitude":37.295005,"longitude":-121.930035,"location":{"type":"Point","coordinates":[-121.930035,37.295005]}},{"name":"Gannett","category_code":"web","description":null,"address1":"7950 Jones Branch Drive","address2":"","zip_code":"22107","city":"McLean","state_code":"VA","country_code":"USA","latitude":38.929289,"longitude":-77.216585,"location":{"type":"Point","coordinates":[-77.216585,38.929289]}},{"name":"Meetup","category_code":"web","description":null,"address1":"632 Broadway","address2":"10th Floor","zip_code":"10012","city":"New York","state_code":"NY","country_code":"USA","latitude":40.72604,"longitude":-73.995722,"location":{"type":"Point","coordinates":[-73.995722,40.72604]}},{"name":"Cisco","category_code":"network_hosting","description":"Headquarters","address1":"170 West Tasman Dr.","address2":"","zip_code":"95134","city":"San Jose","state_code":"CA","country_code":"USA","latitude":37.408802,"longitude":-121.95377,"location":{"type":"Point","coordinates":[-121.95377,37.408802]}},{"name":"YouTube","category_code":"games_video","description":"Corporate Headquarters","address1":"901 Cherry Ave","address2":"","zip_code":"94066","city":"San Bruno","state_code":"CA","country_code":"USA","latitude":37.627971,"longitude":-122.426804,"location":{"type":"Point","coordinates":[-122.426804,37.627971]}},{"name":"Yahoo!","category_code":"web","description":null,"address1":"701 First Avenue","address2":"","zip_code":"94089","city":"Sunnyvale","state_code":"CA","country_code":"USA","latitude":37.418531,"longitude":-122.025485,"location":{"type":"Point","coordinates":[-122.025485,37.418531]}},{"name":"blinkx","category_code":"games_video","description":null,"address1":"1 Market Street","address2":"19th Floor, Spear Tower","zip_code":"94105","city":"San Francisco","state_code":"CA","country_code":"USA","latitude":37.793819,"longitude":-122.395089,"location":{"type":"Point","coordinates":[-122.395089,37.793819]}},{"name":"RockYou","category_code":"games_video","description":"","address1":"585 Broadway","address2":"Suite A","zip_code":"94063","city":"Redwood City","state_code":"CA","country_code":"USA","latitude":37.484619,"longitude":-122.206893,"location":{"type":"Point","coordinates":[-122.206893,37.484619]}},{"name":"BabyCenter","category_code":"web","description":"","address1":"163 Freelon Street","address2":"646-487-6380","zip_code":"94107","city":"San Francisco","state_code":"CA","country_code":"USA","latitude":37.778076,"longitude":-122.397977,"location":{"type":"Point","coordinates":[-122.397977,37.778076]}},{"name":"TheFind","category_code":"ecommerce","description":"","address1":"310 Villa Street","address2":"","zip_code":"94041","city":"Mountain View","state_code":"CA","country_code":"USA","latitude":37.391502,"longitude":-122.073463,"location":{"type":"Point","coordinates":[-122.073463,37.391502]}},{"name":"Eventbrite","category_code":"web","description":"HQ","address1":"651 Brannan","address2":"Suite 110","zip_code":"94107","city":"San Francisco","state_code":"CA","country_code":"USA","latitude":37.779507,"longitude":-122.39071,"location":{"type":"Point","coordinates":[-122.39071,37.779507]}},{"name":"Meebo","category_code":"web","description":"Headquarters","address1":"215 Castro Street","address2":"3rd Floor","zip_code":"94041","city":"Mountain View","state_code":"CA","country_code":"USA","latitude":37.393679,"longitude":-122.079017,"location":{"type":"Point","coordinates":[-122.079017,37.393679]}},{"name":"Box","category_code":"network_hosting","description":"HQ","address1":"4440 El Camino Real","address2":"","zip_code":"94022","city":"Los Altos","state_code":"CA","country_code":"USA","latitude":37.425801,"longitude":-122.143701,"location":{"type":"Point","coordinates":[-122.143701,37.425801]}},{"name":"Carbonite","category_code":"network_hosting","description":"Headquarters","address1":"","address2":"","zip_code":"02116","city":"Boston","state_code":"MA","country_code":"USA","latitude":42.350571,"longitude":-71.076869,"location":{"type":"Point","coordinates":[-71.076869,42.350571]}},{"name":"Ticketmaster","category_code":"web","description":"World Headquarters","address1":"8800 W Sunset Blvd","address2":"","zip_code":"90069","city":"West Hollywood","state_code":"CA","country_code":"USA","latitude":34.0906602,"longitude":-118.3835957,"location":{"type":"Point","coordinates":[-118.3835957,34.0906602]}},{"name":"Seesmic","category_code":"web","description":"","address1":"1550 Bryant Street","address2":"Suite 890","zip_code":"94103","city":"San Francisco","state_code":"CA","country_code":"USA","latitude":37.775196,"longitude":-122.419204,"location":{"type":"Point","coordinates":[-122.419204,37.775196]}},{"name":"Scripps Networks Interactive","category_code":"web","description":null,"address1":"Scripps Networks","address2":"P.O. Box 51850","zip_code":"37950","city":"Knoxville","state_code":"TN","country_code":"USA","latitude":37.09024,"longitude":-95.712891,"location":{"type":"Point","coordinates":[-95.712891,37.09024]}},{"name":"Vast","category_code":"ecommerce","description":"Vast San Francisco","address1":"560 Sutter St.","address2":"Suite 300","zip_code":"94108","city":"San Francisco","state_code":"CA","country_code":"USA","latitude":37.787183,"longitude":-122.397759,"location":{"type":"Point","coordinates":[-122.397759,37.787183]}},{"name":"spigit","category_code":"software","description":"","address1":"311 Ray Street","address2":"","zip_code":"94566","city":"Pleasanton","state_code":"CA","country_code":"USA","latitude":37.6637279,"longitude":-121.8731805,"location":{"type":"Point","coordinates":[-121.8731805,37.6637279]}},{"name":"spigit","category_code":"software","description":"One Freedom Drive","address1":"11951 Freedom Drive","address2":"13 FL","zip_code":"20190","city":"Reston","state_code":"VA","country_code":"USA","latitude":38.9590083,"longitude":-77.3592746,"location":{"type":"Point","coordinates":[-77.3592746,38.9590083]}},{"name":"Bazaarvoice","category_code":"software","description":"Head Office","address1":"3900 N Capital of Texas Hwy","address2":"","zip_code":"78746","city":"Austin","state_code":"TX","country_code":"USA","latitude":30.407545,"longitude":-97.717667,"location":{"type":"Point","coordinates":[-97.717667,30.407545]}},{"name":"hi5","category_code":"games_video","description":"","address1":"55 Second Street","address2":"Suite 400","zip_code":"94105","city":"San Francisco","state_code":"CA","country_code":"USA","latitude":37.788668,"longitude":-122.400558,"location":{"type":"Point","coordinates":[-122.400558,37.788668]}},{"name":"Curse","category_code":"games_video","description":"San Francisco","address1":"60 Broadway","address2":"","zip_code":"94111","city":"San Francisco","state_code":"CA","country_code":"USA","latitude":37.787092,"longitude":-122.399972,"location":{"type":"Point","coordinates":[-122.399972,37.787092]}},{"name":"Wishpot","category_code":"ecommerce","description":"Headquarters","address1":"911 Western Ave.","address2":"Suite 420","zip_code":"98104","city":"Seattle","state_code":"WA","country_code":"USA","latitude":47.620716,"longitude":-122.347533,"location":{"type":"Point","coordinates":[-122.347533,47.620716]}},{"name":"Forbes","category_code":"web","description":"","address1":"60 5th Avenue","address2":"","zip_code":"10011","city":"New York","state_code":"NY","country_code":"USA","latitude":40.736416,"longitude":-73.993302,"location":{"type":"Point","coordinates":[-73.993302,40.736416]}},{"name":"Adobe Systems","category_code":"software","description":"","address1":"","address2":"","zip_code":"","city":"San Jose","state_code":"CA","country_code":"USA","latitude":37.320052,"longitude":-121.877636,"location":{"type":"Point","coordinates":[-121.877636,37.320052]}},{"name":"Reddit","category_code":"web","description":"","address1":"520 3rd St, Suite 305","address2":"","zip_code":"94107","city":"San Francisco","state_code":"CA","country_code":"USA","latitude":37.780883,"longitude":-122.395257,"location":{"type":"Point","coordinates":[-122.395257,37.780883]}},{"name":"Hightail","category_code":"network_hosting","description":"","address1":"1919 S Bascom Ave","address2":"","zip_code":"95008","city":"Campbell","state_code":"CA","country_code":"USA","latitude":37.288974,"longitude":-121.935688,"location":{"type":"Point","coordinates":[-121.935688,37.288974]}},{"name":"Amazon","category_code":"ecommerce","description":null,"address1":"1200 12th Ave","address2":"S # 1200","zip_code":"98144","city":"Seattle","state_code":"WA","country_code":"USA","latitude":47.5923,"longitude":-122.317295,"location":{"type":"Point","coordinates":[-122.317295,47.5923]}},{"name":"Citysearch","category_code":"web","description":null,"address1":"8833 W. Sunset Blvd.","address2":null,"zip_code":"90069","city":"West Hollywood","state_code":"CA","country_code":"USA","latitude":34.090932,"longitude":-118.38428,"location":{"type":"Point","coordinates":[-118.38428,34.090932]}},{"name":"The Walt Disney Company","category_code":"games_video","description":null,"address1":"500 S. Buena Vista St.","address2":"","zip_code":"91521","city":"Burbank","state_code":"CA","country_code":"USA","latitude":34.156802,"longitude":-118.324987,"location":{"type":"Point","coordinates":[-118.324987,34.156802]}},{"name":"Snapfish","category_code":"network_hosting","description":null,"address1":"303 Second Street","address2":"South Tower, Suite 500","zip_code":"94107","city":"San Francisco","state_code":"CA","country_code":"USA","latitude":37.78554,"longitude":-122.396689,"location":{"type":"Point","coordinates":[-122.396689,37.78554]}},{"name":"AOL","category_code":"web","description":"HQ","address1":"770 Broadway","address2":"","zip_code":"10003","city":"New York","state_code":"NY","country_code":"USA","latitude":40.7311317,"longitude":-73.9919311,"location":{"type":"Point","coordinates":[-73.9919311,40.7311317]}},{"name":"Hewlett-Packard","category_code":"web","description":"","address1":"3000 Hanover Street","address2":"","zip_code":"94304-1185","city":"Palo Alto","state_code":"CA","country_code":"USA","latitude":37.437328,"longitude":-122.159928,"location":{"type":"Point","coordinates":[-122.159928,37.437328]}},{"name":"Dropbox","category_code":"software","description":"Headquarters","address1":"","address2":"185 Berry St 4th Floor","zip_code":"94107","city":"San Francisco","state_code":"CA","country_code":"USA","latitude":37.7909427,"longitude":-122.4084994,"location":{"type":"Point","coordinates":[-122.4084994,37.7909427]}},{"name":"Yola","category_code":"web","description":"Yola San Francisco","address1":"201 Mission Street","address2":"Suite 2250","zip_code":"94105","city":"San Francisco","state_code":"CA","country_code":"USA","latitude":37.7911148,"longitude":-122.3954751,"location":{"type":"Point","coordinates":[-122.3954751,37.7911148]}},{"name":"Doostang","category_code":"web","description":"","address1":"410 Cambridge Ave","address2":"2nd Floor","zip_code":"94306","city":"Palo Alto","state_code":"CA","country_code":"USA","latitude":37.427235,"longitude":-122.145783,"location":{"type":"Point","coordinates":[-122.145783,37.427235]}},{"name":"MySpace","category_code":"network_hosting","description":"","address1":"8391 Beverly Blvd.","address2":"#349","zip_code":"90048","city":"Beverly Hills","state_code":"CA","country_code":"USA","latitude":34.076061,"longitude":-118.372953,"location":{"type":"Point","coordinates":[-118.372953,34.076061]}},{"name":"Docstoc","category_code":"web","description":"","address1":"409 S Santa Monica Blvd","address2":"Suite 2A","zip_code":"90401","city":"Santa Monica","state_code":"CA","country_code":"USA","latitude":34.018275,"longitude":-118.495025,"location":{"type":"Point","coordinates":[-118.495025,34.018275]}},{"name":"Nielsen","category_code":"web","description":"","address1":"85 Broad Street","address2":"","zip_code":"10004","city":"New York","state_code":"NY","country_code":"USA","latitude":40.731118,"longitude":-73.991933,"location":{"type":"Point","coordinates":[-73.991933,40.731118]}},{"name":"NexTag","category_code":"web","description":"World Headquarters","address1":"2955 Campus Drive","address2":"Suite 300","zip_code":"94403","city":"San Mateo","state_code":"CA","country_code":"USA","latitude":37.554595,"longitude":-122.317471,"location":{"type":"Point","coordinates":[-122.317471,37.554595]}},{"name":"Sabre","category_code":"web","description":"","address1":"3150 Sabre Dr","address2":"","zip_code":"76092","city":"Southlake","state_code":"TX","country_code":"USA","latitude":32.9819881,"longitude":-97.1599393,"location":{"type":"Point","coordinates":[-97.1599393,32.9819881]}},{"name":"Shopzilla","category_code":"web","description":"Company Headquarters","address1":"12200 W. Olympic Blvd.","address2":"Suite 300","zip_code":"90064","city":"Los Angeles","state_code":"CA","country_code":"USA","latitude":37.09024,"longitude":-95.712891,"location":{"type":"Point","coordinates":[-95.712891,37.09024]}},{"name":"Cendant","category_code":"web","description":null,"address1":null,"address2":null,"zip_code":null,"city":null,"state_code":null,"country_code":"USA","latitude":37.09024,"longitude":-95.712891,"location":{"type":"Point","coordinates":[-95.712891,37.09024]}},{"name":"Digitas","category_code":"web","description":"Corporate Headquarters","address1":"33 Arch Street","address2":"","zip_code":"02110","city":"Boston","state_code":"MA","country_code":"USA","latitude":37.09024,"longitude":-95.712891,"location":{"type":"Point","coordinates":[-95.712891,37.09024]}},{"name":"OpenTable","category_code":"web","description":"","address1":"One Montgomery","address2":"","zip_code":"","city":"San Francisco","state_code":"CA","country_code":"USA","latitude":37.785647,"longitude":-122.405265,"location":{"type":"Point","coordinates":[-122.405265,37.785647]}},{"name":"MocoSpace","category_code":"games_video","description":"","address1":"","address2":"","zip_code":"02111","city":"Boston","state_code":"MA","country_code":"USA","latitude":42.350274,"longitude":-71.058768,"location":{"type":"Point","coordinates":[-71.058768,42.350274]}},{"name":"Primedia","category_code":"web","description":"","address1":"3585 Engineering Drive","address2":"Suite 100","zip_code":"30092","city":"Norcross","state_code":"GA","country_code":"USA","latitude":37.09024,"longitude":-95.712891,"location":{"type":"Point","coordinates":[-95.712891,37.09024]}},{"name":"PriceGrabber","category_code":"web","description":"","address1":"4859 W. Slauson Ave. #259","address2":"","zip_code":"90056","city":"Los Angeles","state_code":"CA","country_code":"USA","latitude":37.09024,"longitude":-95.712891,"location":{"type":"Point","coordinates":[-95.712891,37.09024]}},{"name":"imeem","category_code":"music","description":"","address1":"139 Townsend St","address2":"Ste 400","zip_code":"94107","city":"San Francisco","state_code":"CA","country_code":"USA","latitude":37.779624,"longitude":-122.391236,"location":{"type":"Point","coordinates":[-122.391236,37.779624]}},{"name":"FlowPlay","category_code":"games_video","description":"","address1":"114 Alaskan Way South","address2":"Ste. 100","zip_code":"98104","city":"Seattle","state_code":"WA","country_code":"USA","latitude":47.6015315,"longitude":-122.335943,"location":{"type":"Point","coordinates":[-122.335943,47.6015315]}},{"name":"Viewpoints","category_code":"web","description":"","address1":"222 W. Hubbard Street","address2":"","zip_code":"60610","city":"Chicago","state_code":"IL","country_code":"USA","latitude":41.890376,"longitude":-87.63406,"location":{"type":"Point","coordinates":[-87.63406,41.890376]}},{"name":"Kaboose","category_code":"web","description":null,"address1":null,"address2":null,"zip_code":null,"city":null,"state_code":null,"country_code":"USA","latitude":37.09024,"longitude":-95.712891,"location":{"type":"Point","coordinates":[-95.712891,37.09024]}},{"name":"Diigo","category_code":"web","description":null,"address1":null,"address2":null,"zip_code":null,"city":"Reno","state_code":"NV","country_code":"USA","latitude":39.530368,"longitude":-119.81439,"location":{"type":"Point","coordinates":[-119.81439,39.530368]}},{"name":"Mimeo","category_code":"web","description":null,"address1":"460 Park Avenue South","address2":"","zip_code":"10016","city":"New York","state_code":"NY","country_code":"USA","latitude":40.745216,"longitude":-73.982807,"location":{"type":"Point","coordinates":[-73.982807,40.745216]}},{"name":"PlaySpan","category_code":"games_video","description":"HQ","address1":"","address2":"","zip_code":"95054","city":"Santa Clara","state_code":"CA","country_code":"USA","latitude":37.396312,"longitude":-121.961396,"location":{"type":"Point","coordinates":[-121.961396,37.396312]}},{"name":"DocuSign","category_code":"software","description":"","address1":"1301 Second Ave","address2":"Suite 2000","zip_code":"98101","city":"Seattle","state_code":"WA","country_code":"USA","latitude":47.603015,"longitude":-122.335668,"location":{"type":"Point","coordinates":[-122.335668,47.603015]}},{"name":"MSNBC","category_code":"web","description":"HQ","address1":"One MSNBC Plaza","address2":"","zip_code":"07094-2419","city":"Secaucus","state_code":"NJ","country_code":"USA","latitude":37.09024,"longitude":-95.712891,"location":{"type":"Point","coordinates":[-95.712891,37.09024]}},{"name":"Uptake","category_code":"web","description":"Head Office","address1":"654 High Street, Suite 220","address2":"","zip_code":"94301","city":"Palo Alto","state_code":"CA","country_code":"USA","latitude":37.443058,"longitude":-122.161674,"location":{"type":"Point","coordinates":[-122.161674,37.443058]}},{"name":"23andMe","category_code":"biotech","description":"","address1":"2606 Bayshore Parkway","address2":"","zip_code":"94042","city":"Mountain View","state_code":"CA","country_code":"USA","latitude":37.09024,"longitude":-95.712891,"location":{"type":"Point","coordinates":[-95.712891,37.09024]}},{"name":"Automattic","category_code":"web","description":"Automattic Lounge","address1":"132 Hawthorne St","address2":"","zip_code":"94107","city":"San Francisco","state_code":"CA","country_code":"USA","latitude":37.744274,"longitude":-122.421344,"location":{"type":"Point","coordinates":[-122.421344,37.744274]}},{"name":"Veodia","category_code":"games_video","description":"HQ","address1":"1825 S Grant Street","address2":"Suite 500","zip_code":"94402","city":"San Mateo","state_code":"CA","country_code":"USA","latitude":37.553743,"longitude":-122.300246,"location":{"type":"Point","coordinates":[-122.300246,37.553743]}},{"name":"uTest","category_code":"software","description":"Headquarters","address1":"100 Pennsylvania Ave","address2":"","zip_code":"01710","city":"Framingham","state_code":"MA","country_code":"USA","latitude":42.288291,"longitude":-71.52679,"location":{"type":"Point","coordinates":[-71.52679,42.288291]}},{"name":"CollegeHumor","category_code":"games_video","description":null,"address1":"","address2":"","zip_code":"","city":"","state_code":null,"country_code":"USA","latitude":37.09024,"longitude":-95.712891,"location":{"type":"Point","coordinates":[-95.712891,37.09024]}},{"name":"Vimeo","category_code":"games_video","description":"","address1":"555 W 18th St","address2":"","zip_code":"10011-2822","city":"New York","state_code":"NY","country_code":"USA","latitude":40.7453721,"longitude":-74.0078293,"location":{"type":"Point","coordinates":[-74.0078293,40.7453721]}},{"name":"SezWho","category_code":"web","description":null,"address1":"1000 Fremont Avenue, #230","address2":null,"zip_code":"94024","city":"Los Altos","state_code":"CA","country_code":"USA","latitude":37.351894,"longitude":-122.085807,"location":{"type":"Point","coordinates":[-122.085807,37.351894]}},{"name":"Vringo","category_code":"software","description":"HQ","address1":"780 Third Avenue","address2":"Fifteenth Floor","zip_code":"10017","city":"New York","state_code":"NY","country_code":"USA","latitude":40.7550005,"longitude":-73.9717364,"location":{"type":"Point","coordinates":[-73.9717364,40.7550005]}},{"name":"StreetFire","category_code":"web","description":"StreetFire Studios","address1":"12910 Culver Blvd Suite H","address2":"","zip_code":"90049","city":"Los Angeles","state_code":"CA","country_code":"USA","latitude":33.982431,"longitude":-118.426707,"location":{"type":"Point","coordinates":[-118.426707,33.982431]}},{"name":"SuperMedia","category_code":"web","description":null,"address1":null,"address2":null,"zip_code":null,"city":null,"state_code":null,"country_code":"USA","latitude":37.09024,"longitude":-95.712891,"location":{"type":"Point","coordinates":[-95.712891,37.09024]}},{"name":"Blucora","category_code":"web","description":"","address1":"10900 NE 8th Street","address2":"Suite 800","zip_code":"98004","city":"Bellevue","state_code":"WA","country_code":"USA","latitude":47.615611,"longitude":-122.196285,"location":{"type":"Point","coordinates":[-122.196285,47.615611]}},{"name":"ZeniMax","category_code":"games_video","description":null,"address1":"1370 Piccard Drive","address2":"Suite 120","zip_code":"20850","city":"Rockville","state_code":"MD","country_code":"USA","latitude":39.105555,"longitude":-77.179772,"location":{"type":"Point","coordinates":[-77.179772,39.105555]}},{"name":"Splunk","category_code":"software","description":"Headquarters","address1":"250 Brannan St.","address2":"","zip_code":"94107","city":"San Francisco","state_code":"CA","country_code":"USA","latitude":37.78274,"longitude":-122.390945,"location":{"type":"Point","coordinates":[-122.390945,37.78274]}},{"name":"Microsoft","category_code":"software","description":"World Headquarters","address1":"1 Microsoft Way","address2":"","zip_code":"","city":"Redmond","state_code":"WA","country_code":"USA","latitude":47.643583,"longitude":-122.128585,"location":{"type":"Point","coordinates":[-122.128585,47.643583]}},{"name":"Microsoft","category_code":"software","description":"Boise Development Center","address1":"500 S 10th St.","address2":"","zip_code":"83702","city":"Boise","state_code":"ID","country_code":"USA","latitude":43.613184,"longitude":-116.209356,"location":{"type":"Point","coordinates":[-116.209356,43.613184]}},{"name":"Motionbox","category_code":"games_video","description":"","address1":"80 Broad St","address2":"28th Floor","zip_code":"10004","city":"New York","state_code":"NY","country_code":"USA","latitude":40.606061,"longitude":-73.822331,"location":{"type":"Point","coordinates":[-73.822331,40.606061]}},{"name":"HubSpot","category_code":"software","description":"Headquarters","address1":"25 First St.","address2":"2nd Floor","zip_code":"02141","city":"Cambridge","state_code":"MA","country_code":"USA","latitude":42.375392,"longitude":-71.118487,"location":{"type":"Point","coordinates":[-71.118487,42.375392]}},{"name":"Kosmix","category_code":"web","description":"","address1":"","address2":"","zip_code":"94041","city":"Mountain View","state_code":"CA","country_code":"USA","latitude":37.3867729,"longitude":-122.0752224,"location":{"type":"Point","coordinates":[-122.0752224,37.3867729]}},{"name":"Goodreads","category_code":"web","description":"Goodreads SM","address1":"1444 9th St, Suite B","address2":"","zip_code":"60401","city":"Santa Monica","state_code":"CA","country_code":"USA","latitude":34.01052,"longitude":-118.495981,"location":{"type":"Point","coordinates":[-118.495981,34.01052]}},{"name":"Match","category_code":"web","description":"","address1":"P.O. Box 12305","address2":"","zip_code":"75225","city":"Dallas","state_code":"TX","country_code":"USA","latitude":32.863466,"longitude":-96.791739,"location":{"type":"Point","coordinates":[-96.791739,32.863466]}},{"name":"CDNetworks","category_code":"network_hosting","description":"","address1":"441 W. Trimble Road","address2":"","zip_code":"CA 95134","city":"San Jose","state_code":"CA","country_code":"USA","latitude":37.4050988,"longitude":-121.9477639,"location":{"type":"Point","coordinates":[-121.9477639,37.4050988]}},{"name":"Deem","category_code":"ecommerce","description":"HQ","address1":"301 Howard Street","address2":"20th Floor","zip_code":"94105","city":"San Francisco","state_code":"CA","country_code":"USA","latitude":37.559836,"longitude":-122.271532,"location":{"type":"Point","coordinates":[-122.271532,37.559836]}},{"name":"GridPoint","category_code":"cleantech","description":"HQ","address1":"2801 Clarendon Blvd. Suite 100","address2":"","zip_code":"22201","city":"Arlington","state_code":"VA","country_code":"USA","latitude":38.888107,"longitude":-77.091562,"location":{"type":"Point","coordinates":[-77.091562,38.888107]}},{"name":"Etsy","category_code":"ecommerce","description":"","address1":"55 Washington St.","address2":"5th Floor","zip_code":"11201","city":"Brooklyn","state_code":"NY","country_code":"USA","latitude":40.694731,"longitude":-73.983268,"location":{"type":"Point","coordinates":[-73.983268,40.694731]}},{"name":"TripAdvisor","category_code":"web","description":"","address1":"141 Needham Street","address2":"","zip_code":"02464","city":"Newton","state_code":"MA","country_code":"USA","latitude":42.312908,"longitude":-71.212341,"location":{"type":"Point","coordinates":[-71.212341,42.312908]}},{"name":"NetApp","category_code":"software","description":null,"address1":null,"address2":null,"zip_code":null,"city":null,"state_code":null,"country_code":"USA","latitude":37.09024,"longitude":-95.712891,"location":{"type":"Point","coordinates":[-95.712891,37.09024]}},{"name":"fabrik","category_code":"network_hosting","description":null,"address1":"1825 South Grant St., Suite 200","address2":null,"zip_code":"94402","city":"San Mateo","state_code":"CA","country_code":"USA","latitude":37.553743,"longitude":-122.300246,"location":{"type":"Point","coordinates":[-122.300246,37.553743]}},{"name":"Oversee","category_code":"web","description":"Headquarters","address1":"515 S. Flower Street Suite 4400","address2":"","zip_code":"90071","city":"Los Angeles","state_code":"CA","country_code":"USA","latitude":34.051368,"longitude":-118.256305,"location":{"type":"Point","coordinates":[-118.256305,34.051368]}},{"name":"Zynga","category_code":"games_video","description":"SF HQ","address1":"365 Vermont St.","address2":"","zip_code":"94103","city":"San Francisco","state_code":"CA","country_code":"USA","latitude":37.765158,"longitude":-122.404234,"location":{"type":"Point","coordinates":[-122.404234,37.765158]}},{"name":"HealthCentral","category_code":"web","description":"","address1":"2300 Wilson Blvd.","address2":"Suite 600","zip_code":"22201","city":"Arlington","state_code":"VA","country_code":"USA","latitude":38.894403,"longitude":-77.068267,"location":{"type":"Point","coordinates":[-77.068267,38.894403]}},{"name":"comScore","category_code":"web","description":"Corporate Headquarters","address1":"11950 Democracy Drive","address2":"Suite 600","zip_code":"20190","city":"Reston","state_code":"VA","country_code":"USA","latitude":38.9579071,"longitude":-77.3577568,"location":{"type":"Point","coordinates":[-77.3577568,38.9579071]}},{"name":"Expedia","category_code":"web","description":"Corporate Office","address1":"3150 139th Avenue SE","address2":"","zip_code":"98005","city":"Bellevue","state_code":"WA","country_code":"USA","latitude":47.58181,"longitude":-122.154837,"location":{"type":"Point","coordinates":[-122.154837,47.58181]}},{"name":"Citrix Online","category_code":"web","description":"","address1":"7414 Hollister Avenue","address2":"","zip_code":"93117","city":"Goleta","state_code":"CA","country_code":"USA","latitude":34.431454,"longitude":-119.855405,"location":{"type":"Point","coordinates":[-119.855405,34.431454]}},{"name":"Gawker Media","category_code":"games_video","description":"HQ","address1":"210 Elizabeth Street","address2":"Fourth Floor","zip_code":"10012","city":"New York","state_code":"NY","country_code":"USA","latitude":40.757929,"longitude":-73.985506,"location":{"type":"Point","coordinates":[-73.985506,40.757929]}},{"name":"Mixbook","category_code":"web","description":"Mixbook Global HQ","address1":"409 Sherman Ave","address2":"","zip_code":"94306-1827","city":"Palo Alto","state_code":"CA","country_code":"USA","latitude":37.383844,"longitude":-121.918319,"location":{"type":"Point","coordinates":[-121.918319,37.383844]}},{"name":"Experian","category_code":"web","description":null,"address1":"475 Anton Blvd.","address2":"","zip_code":"92626","city":"Costa Mesa","state_code":"CA","country_code":"USA","latitude":33.689171,"longitude":-117.874221,"location":{"type":"Point","coordinates":[-117.874221,33.689171]}},{"name":"TV Guide","category_code":"games_video","description":"","address1":"7140 South Lewis Avenue","address2":"","zip_code":"74136","city":"Tulsa","state_code":"OK","country_code":"USA","latitude":36.0592598,"longitude":-95.957865,"location":{"type":"Point","coordinates":[-95.957865,36.0592598]}},{"name":"Paramount Pictures","category_code":"games_video","description":"Viacom Headquarters","address1":"1515 Broadway","address2":"","zip_code":"10036","city":"New York","state_code":"NY","country_code":"USA","latitude":40.7577017,"longitude":-73.9858165,"location":{"type":"Point","coordinates":[-73.9858165,40.7577017]}},{"name":"LiveUniverse","category_code":"web","description":null,"address1":"9255 Sunset Blvd. Suite 1010","address2":"","zip_code":"90069","city":"West Hollywood","state_code":"CA","country_code":"USA","latitude":34.090228,"longitude":-118.393843,"location":{"type":"Point","coordinates":[-118.393843,34.090228]}},{"name":"Social Gaming Network","category_code":"games_video","description":"HQ Los Angeles","address1":"9570 W. Pico Blvd 3rd Floor","address2":"","zip_code":"90035","city":"Los Angeles","state_code":"CA","country_code":"USA","latitude":37.446823,"longitude":-122.161523,"location":{"type":"Point","coordinates":[-122.161523,37.446823]}},{"name":"Social Gaming Network","category_code":"games_video","description":"","address1":"9606 S. Santa Monica Blvd","address2":"2nd Floor","zip_code":"90210","city":"Beverly Hills","state_code":"CA","country_code":"USA","latitude":34.0698494,"longitude":-118.4054182,"location":{"type":"Point","coordinates":[-118.4054182,34.0698494]}},{"name":"RiffTrax","category_code":"games_video","description":"","address1":"12230 El Camino Real","address2":"Suite 300","zip_code":"92130","city":"San Diego","state_code":"CA","country_code":"USA","latitude":32.936973,"longitude":-117.240431,"location":{"type":"Point","coordinates":[-117.240431,32.936973]}},{"name":"8coupons","category_code":"web","description":"","address1":"","address2":"","zip_code":"10011","city":"New York","state_code":"NY","country_code":"USA","latitude":40.7431477,"longitude":-73.9934288,"location":{"type":"Point","coordinates":[-73.9934288,40.7431477]}},{"name":"StubHub","category_code":"ecommerce","description":"","address1":"199 Fremont St","address2":"Fl 4","zip_code":"94105","city":"San Francisco","state_code":"CA","country_code":"USA","latitude":37.7892685,"longitude":-122.3951844,"location":{"type":"Point","coordinates":[-122.3951844,37.7892685]}},{"name":"Evernote","category_code":"software","description":"HQ","address1":"305 Walnut St","address2":"","zip_code":"94063","city":"Redwood City","state_code":"CA","country_code":"USA","latitude":37.386774,"longitude":-121.987661,"location":{"type":"Point","coordinates":[-121.987661,37.386774]}},{"name":"Intuit","category_code":"software","description":"Headquarters","address1":"2632 Marine Way","address2":"","zip_code":"94043","city":"Mountain View","state_code":"CA","country_code":"USA","latitude":37.428373,"longitude":-122.097604,"location":{"type":"Point","coordinates":[-122.097604,37.428373]}},{"name":"Intuit","category_code":"software","description":"San Diego","address1":"7535 Torrey Santa Fe Road","address2":"","zip_code":"92129","city":"San Diego","state_code":"CA","country_code":"USA","latitude":32.957695,"longitude":-117.158245,"location":{"type":"Point","coordinates":[-117.158245,32.957695]}},{"name":"Kluster","category_code":"web","description":"New York Office","address1":"3rd St & Ave A","address2":"","zip_code":"10016","city":"New York","state_code":"NY","country_code":"USA","latitude":40.723652,"longitude":-73.985281,"location":{"type":"Point","coordinates":[-73.985281,40.723652]}},{"name":"Issuu","category_code":"web","description":"Head Quarters","address1":"261 Hamilton Avenue","address2":"","zip_code":"94301","city":"Palo Alto","state_code":"CA","country_code":"USA","latitude":37.4784804,"longitude":-122.1514101,"location":{"type":"Point","coordinates":[-122.1514101,37.4784804]}},{"name":"Outbrain","category_code":"web","description":"New York","address1":"116 E. 16th Street","address2":"12th Floor","zip_code":"10003","city":"New York City","state_code":"NY","country_code":"USA","latitude":40.757929,"longitude":-73.985506,"location":{"type":"Point","coordinates":[-73.985506,40.757929]}},{"name":"DivX","category_code":"software","description":"","address1":"4780 Eastgate Mall","address2":"","zip_code":"92121","city":"San Diego","state_code":"CA","country_code":"USA","latitude":32.880882,"longitude":-117.203309,"location":{"type":"Point","coordinates":[-117.203309,32.880882]}},{"name":"XO Group","category_code":"web","description":"","address1":"462 Broadway, Floor 6","address2":"","zip_code":"10013","city":"New York","state_code":"NY","country_code":"USA","latitude":40.720824,"longitude":-74.00007,"location":{"type":"Point","coordinates":[-74.00007,40.720824]}},{"name":"Comverse Technology","category_code":"software","description":"HQ","address1":"810 7th Ave","address2":"","zip_code":"10019-5810","city":"New York","state_code":"NY","country_code":"USA","latitude":36.162612,"longitude":-106.53529,"location":{"type":"Point","coordinates":[-106.53529,36.162612]}},{"name":"AtomicOnline","category_code":"web","description":"Headquarters","address1":"5140 W. Goldleaf Circle","address2":"1ST FL","zip_code":"90056","city":"Los Angeles","state_code":"CA","country_code":"USA","latitude":33.988735,"longitude":-118.368871,"location":{"type":"Point","coordinates":[-118.368871,33.988735]}},{"name":"99designs","category_code":"design","description":"United States (HQ)","address1":"447 Battery St.","address2":"3rd Floor","zip_code":"94111","city":"San Francisco","state_code":"CA","country_code":"USA","latitude":37.7955307,"longitude":-122.4005983,"location":{"type":"Point","coordinates":[-122.4005983,37.7955307]}},{"name":"Ifbyphone","category_code":"software","description":"HQ","address1":"300 W. Adams","address2":"9th Floor","zip_code":"60606","city":"Chicago","state_code":"IL","country_code":"USA","latitude":42.040851,"longitude":-87.750643,"location":{"type":"Point","coordinates":[-87.750643,42.040851]}},{"name":"Kareo","category_code":"software","description":"Kareo's Headquarters","address1":"3353 Michelson","address2":"Suite 400","zip_code":"92612","city":"Irvine","state_code":"CA","country_code":"USA","latitude":33.676444,"longitude":-117.8587,"location":{"type":"Point","coordinates":[-117.8587,33.676444]}},{"name":"Satmetrix","category_code":"software","description":"Global Headquarters","address1":"1100 Park Place","address2":"","zip_code":"94403","city":"San Mateo","state_code":"CA","country_code":"USA","latitude":37.55818,"longitude":-122.276454,"location":{"type":"Point","coordinates":[-122.276454,37.55818]}},{"name":"Thrive","category_code":"web","description":"","address1":"265 Canal St. STE 601","address2":"","zip_code":"10013","city":"New York","state_code":"NY","country_code":"USA","latitude":40.718871,"longitude":-74.00118,"location":{"type":"Point","coordinates":[-74.00118,40.718871]}},{"name":"PointRoll","category_code":"web","description":"Headquarters","address1":"3200 Horizon Drive Suite 120","address2":"","zip_code":"19406","city":"King of Prussia","state_code":"PA","country_code":"USA","latitude":40.0750511,"longitude":-75.2904912,"location":{"type":"Point","coordinates":[-75.2904912,40.0750511]}},{"name":"AccountNow","category_code":"web","description":null,"address1":"","address2":"","zip_code":"94583","city":"San Ramon","state_code":"CA","country_code":"USA","latitude":37.769922,"longitude":-122.001446,"location":{"type":"Point","coordinates":[-122.001446,37.769922]}},{"name":"Rackspace","category_code":"software","description":"HQ","address1":"5000 Walzem Road","address2":"Suite 100","zip_code":"78218","city":"San Antonio","state_code":"CA","country_code":"USA","latitude":29.527664,"longitude":-98.562993,"location":{"type":"Point","coordinates":[-98.562993,29.527664]}},{"name":"Sedo","category_code":"web","description":"","address1":"161 First Street","address2":"Fourth Floor","zip_code":"02142","city":"Cambridge","state_code":"MA","country_code":"USA","latitude":42.365592,"longitude":-71.078506,"location":{"type":"Point","coordinates":[-71.078506,42.365592]}},{"name":"Replay Solutions","category_code":"software","description":"HQ","address1":"2100 Seaport Blvd.","address2":"Suite 400","zip_code":"94063","city":"Redwood City","state_code":"CA","country_code":"USA","latitude":37.512318,"longitude":-122.200914,"location":{"type":"Point","coordinates":[-122.200914,37.512318]}},{"name":"CitySquares","category_code":"web","description":"","address1":"43174 Business Park Drive","address2":"Suite 103","zip_code":"92590","city":"Temecula","state_code":"CA","country_code":"USA","latitude":42.340653,"longitude":-71.068003,"location":{"type":"Point","coordinates":[-71.068003,42.340653]}},{"name":"aQuantive","category_code":"web","description":"aQuantive, Inc.","address1":"821 2nd Avenue","address2":"Suite 1800","zip_code":"98104","city":"Seattle","state_code":"WA","country_code":"USA","latitude":47.6435828,"longitude":-122.1285846,"location":{"type":"Point","coordinates":[-122.1285846,47.6435828]}},{"name":"Entriq","category_code":"games_video","description":null,"address1":"1900 Wright Place","address2":"Suite 200","zip_code":"92008","city":"Carlsbad","state_code":"CA","country_code":"USA","latitude":33.122499,"longitude":-117.289278,"location":{"type":"Point","coordinates":[-117.289278,33.122499]}},{"name":"IBM","category_code":"software","description":"Corporate Headquarters","address1":"New Orchard Road","address2":"","zip_code":"10504","city":"Armonk","state_code":"NY","country_code":"USA","latitude":41.109534,"longitude":-73.723999,"location":{"type":"Point","coordinates":[-73.723999,41.109534]}},{"name":"SanDisk","category_code":"web","description":"Corporate Headquarters","address1":"601 McCarthy Boulevard","address2":"","zip_code":"95035","city":"Milpitas","state_code":"CA","country_code":"USA","latitude":37.4180721,"longitude":-121.9207173,"location":{"type":"Point","coordinates":[-121.9207173,37.4180721]}},{"name":"BMC Software","category_code":"software","description":"","address1":"2101 City West Blvd","address2":"","zip_code":"77042","city":"Houston","state_code":"TX","country_code":"USA","latitude":29.7805488,"longitude":-95.3457921,"location":{"type":"Point","coordinates":[-95.3457921,29.7805488]}},{"name":"Cvent","category_code":"software","description":"Cvent HQ","address1":"8180 Greensboro Dr.","address2":"9th Floor","zip_code":"22102","city":"McLean","state_code":"VA","country_code":"USA","latitude":38.923453,"longitude":-77.227525,"location":{"type":"Point","coordinates":[-77.227525,38.923453]}},{"name":"BroadSoft","category_code":"software","description":"Corporate Headquarters","address1":"9737 Washingtonian Blvd Suite 350","address2":"","zip_code":"20878","city":"Gaithersburg","state_code":"MD","country_code":"USA","latitude":39.141511,"longitude":-77.209394,"location":{"type":"Point","coordinates":[-77.209394,39.141511]}},{"name":"Higher One","category_code":"ecommerce","description":"HQ","address1":"25 Science Park","address2":"","zip_code":"06511","city":"New Haven","state_code":"CT","country_code":"USA","latitude":41.3239577,"longitude":-72.9268094,"location":{"type":"Point","coordinates":[-72.9268094,41.3239577]}},{"name":"Perfect Market","category_code":"software","description":"Headquarters","address1":"130 W. Union Street","address2":"","zip_code":"91103","city":"Pasadena","state_code":"CA","country_code":"USA","latitude":34.146436,"longitude":-118.153136,"location":{"type":"Point","coordinates":[-118.153136,34.146436]}},{"name":"Phoenix Technologies","category_code":"software","description":"","address1":"915 Murphy Ranch Road","address2":"","zip_code":"95035","city":"Milpitas","state_code":"CA","country_code":"USA","latitude":37.414225,"longitude":-121.92439,"location":{"type":"Point","coordinates":[-121.92439,37.414225]}},{"name":"Glassdoor","category_code":"web","description":"","address1":"1 Harbor Drive","address2":"Suite 300","zip_code":"94965","city":"Sausalito","state_code":"CA","country_code":"USA","latitude":37.868002,"longitude":-122.500111,"location":{"type":"Point","coordinates":[-122.500111,37.868002]}},{"name":"Marketo","category_code":"software","description":"Marketo Headquarters","address1":"901 Mariners Island Blvd","address2":"Suite 200","zip_code":"94404","city":"San Mateo","state_code":"CA","country_code":"USA","latitude":37.5583,"longitude":-122.301385,"location":{"type":"Point","coordinates":[-122.301385,37.5583]}},{"name":"Forrester Research","category_code":"consulting","description":null,"address1":"400 Technology Square","address2":"","zip_code":"02139","city":"Cambridge","state_code":"MA","country_code":"USA","latitude":42.3632,"longitude":-71.092378,"location":{"type":"Point","coordinates":[-71.092378,42.3632]}},{"name":"AudioMicro","category_code":"games_video","description":"","address1":"13351-D Riverside Dr #219","address2":"","zip_code":"91423","city":"Sherman Oaks","state_code":"CA","country_code":"USA","latitude":34.153588,"longitude":-118.422495,"location":{"type":"Point","coordinates":[-118.422495,34.153588]}},{"name":"Stylehive","category_code":"ecommerce","description":null,"address1":"685 Market Street","address2":"Ste.590","zip_code":"94105","city":"San Francisco","state_code":"CA","country_code":"USA","latitude":37.787646,"longitude":-122.402759,"location":{"type":"Point","coordinates":[-122.402759,37.787646]}},{"name":"CarDomain Network","category_code":"web","description":null,"address1":"1633 Westlake Ave N","address2":"Suite 100","zip_code":"98119","city":"Seattle","state_code":"WA","country_code":"USA","latitude":47.634741,"longitude":-122.340435,"location":{"type":"Point","coordinates":[-122.340435,47.634741]}},{"name":"Pegasystems","category_code":"software","description":"","address1":"1 Rogers St","address2":"","zip_code":"02142-1209","city":"Cambridge","state_code":"MA","country_code":"USA","latitude":42.36233,"longitude":-71.081527,"location":{"type":"Point","coordinates":[-71.081527,42.36233]}},{"name":"WebMD","category_code":"web","description":"HQ","address1":"111 8th Ave","address2":"7th Floor","zip_code":"10011","city":"New York","state_code":"NY","country_code":"USA","latitude":40.7410886,"longitude":-74.0015261,"location":{"type":"Point","coordinates":[-74.0015261,40.7410886]}},{"name":"Absolute Software","category_code":"software","description":"U.S. Headquarters","address1":"2nd Floor","address2":"7000 North MoPac Expressway","zip_code":"78731","city":"Austin","state_code":"TX","country_code":"USA","latitude":30.265006,"longitude":-97.746608,"location":{"type":"Point","coordinates":[-97.746608,30.265006]}},{"name":"Odeo","category_code":"web","description":null,"address1":"500 Fifth Avenue","address2":"Suite 1650","zip_code":"10110","city":"New York","state_code":"NY","country_code":"USA","latitude":40.753918,"longitude":-73.981237,"location":{"type":"Point","coordinates":[-73.981237,40.753918]}},{"name":"groSolar","category_code":"cleantech","description":"Corporate Headquarters","address1":"601 Old River Road Suite 3","address2":"","zip_code":"05001","city":"White River","state_code":"VT","country_code":"USA","latitude":43.662181,"longitude":-72.352081,"location":{"type":"Point","coordinates":[-72.352081,43.662181]}},{"name":"Cellfish","category_code":"web","description":"","address1":"215 Lexington Avenue","address2":"","zip_code":"10016","city":"New York","state_code":"NY","country_code":"USA","latitude":40.761855,"longitude":-73.983754,"location":{"type":"Point","coordinates":[-73.983754,40.761855]}},{"name":"Advent Software","category_code":"software","description":"Corporate Headquarters:","address1":"600 Townsend Street","address2":"","zip_code":"94103","city":"San Francisco","state_code":"CA","country_code":"USA","latitude":37.771706,"longitude":-122.402683,"location":{"type":"Point","coordinates":[-122.402683,37.771706]}},{"name":"Univa UD","category_code":"software","description":"HQ","address1":"1001 Warrenville Rd","address2":"","zip_code":"60188","city":"Lisle","state_code":"IL","country_code":"USA","latitude":41.808458,"longitude":-88.073008,"location":{"type":"Point","coordinates":[-88.073008,41.808458]}},{"name":"RichRelevance","category_code":"ecommerce","description":"Corporate Headquarters","address1":"633 Folsom St.","address2":"4th Floor","zip_code":"94107","city":"San Francisco","state_code":"CO","country_code":"USA","latitude":37.7938969,"longitude":-122.4000965,"location":{"type":"Point","coordinates":[-122.4000965,37.7938969]}},{"name":"Progress Software","category_code":"software","description":"","address1":"14 Oak Park Drive","address2":"","zip_code":"01730","city":"Bedford","state_code":"MA","country_code":"USA","latitude":42.513363,"longitude":-71.252296,"location":{"type":"Point","coordinates":[-71.252296,42.513363]}},{"name":"Comcast","category_code":"games_video","description":"One Comcast Center","address1":"1701 JFK Blvd","address2":"","zip_code":"19103","city":"Philadelphia","state_code":"PA","country_code":"USA","latitude":39.9525762,"longitude":-75.1652518,"location":{"type":"Point","coordinates":[-75.1652518,39.9525762]}},{"name":"Angie's List","category_code":"web","description":"","address1":"1030 E. Washington Street","address2":"","zip_code":"46202","city":"Indianapolis","state_code":"IN","country_code":"USA","latitude":39.767289,"longitude":-86.139793,"location":{"type":"Point","coordinates":[-86.139793,39.767289]}},{"name":"UnitedLayer","category_code":"network_hosting","description":"San Francisco","address1":"200 Paul Ave.","address2":"Suite 110","zip_code":"94124","city":"San Francisco","state_code":"CA","country_code":"USA","latitude":37.724999,"longitude":-122.397254,"location":{"type":"Point","coordinates":[-122.397254,37.724999]}},{"name":"GitHub","category_code":"software","description":"","address1":"275 Brannan St.","address2":"","zip_code":"94107","city":"San Francisco","state_code":"CA","country_code":"USA","latitude":37.775196,"longitude":-122.419204,"location":{"type":"Point","coordinates":[-122.419204,37.775196]}},{"name":"Globant","category_code":"software","description":"Boston","address1":"34 Hayden Rowe Street","address2":"","zip_code":"01748","city":"Hopkinton","state_code":"MA","country_code":"USA","latitude":42.2261823,"longitude":-71.5174869,"location":{"type":"Point","coordinates":[-71.5174869,42.2261823]}},{"name":"Globant","category_code":"software","description":"San Francisco","address1":"875 Howard St, 3rd floor, Of: 320","address2":"","zip_code":"94103","city":"San Francisco","state_code":"CA","country_code":"USA","latitude":37.7819286,"longitude":-122.4041764,"location":{"type":"Point","coordinates":[-122.4041764,37.7819286]}},{"name":"Wayfair","category_code":"ecommerce","description":"Headquarters","address1":"177 Huntington Ave","address2":"Suite 6000","zip_code":"02115","city":"Boston","state_code":"MA","country_code":"USA","latitude":42.348691,"longitude":-71.082523,"location":{"type":"Point","coordinates":[-71.082523,42.348691]}},{"name":"Webtrends","category_code":"web","description":"HQ","address1":"851 SW 6th Ave.","address2":"Suite 1600","zip_code":"97204","city":"Portland","state_code":"OR","country_code":"USA","latitude":45.518038,"longitude":-122.67934,"location":{"type":"Point","coordinates":[-122.67934,45.518038]}},{"name":"Razorfish","category_code":"consulting","description":"Chicago","address1":"600 W Fulton St # 400","address2":"","zip_code":"60661","city":"Chicago","state_code":"TX","country_code":"USA","latitude":41.8819283,"longitude":-87.6445473,"location":{"type":"Point","coordinates":[-87.6445473,41.8819283]}},{"name":"Razorfish","category_code":"consulting","description":"Austin","address1":"300 West 6th Street","address2":"Suite 1200","zip_code":"78701","city":"Austin","state_code":"TX","country_code":"USA","latitude":30.2690262,"longitude":-97.7456714,"location":{"type":"Point","coordinates":[-97.7456714,30.2690262]}},{"name":"Sonic Solutions","category_code":"software","description":"","address1":"101 Rowland Way","address2":"","zip_code":"94945","city":"Novato","state_code":"CA","country_code":"USA","latitude":38.098214,"longitude":-122.55981,"location":{"type":"Point","coordinates":[-122.55981,38.098214]}},{"name":"Ariba","category_code":"software","description":"","address1":"807 11th Avenue","address2":"","zip_code":"94089","city":"Sunnyvale","state_code":"CA","country_code":"USA","latitude":37.401305,"longitude":-122.009744,"location":{"type":"Point","coordinates":[-122.009744,37.401305]}},{"name":"Kabam","category_code":"games_video","description":"HQ","address1":"795 Folsom Street","address2":"Suite 600","zip_code":"94107","city":"San Francisco","state_code":"CA","country_code":"USA","latitude":37.3944561,"longitude":-122.0785314,"location":{"type":"Point","coordinates":[-122.0785314,37.3944561]}},{"name":"Citizen Sports","category_code":"games_video","description":"","address1":"525 Brannan St","address2":"","zip_code":"94107","city":"San Francisco","state_code":"CA","country_code":"USA","latitude":37.777513,"longitude":-122.397044,"location":{"type":"Point","coordinates":[-122.397044,37.777513]}},{"name":"Smashwords","category_code":"web","description":null,"address1":"15951 Los Gatos Blvd., Ste 16","address2":"","zip_code":"95032","city":"Los Gatos","state_code":"CA","country_code":"USA","latitude":37.23697,"longitude":-121.96254,"location":{"type":"Point","coordinates":[-121.96254,37.23697]}},{"name":"Spark Networks","category_code":"web","description":"","address1":"8383 Wilshire Blvd","address2":"Suite 800","zip_code":"90211","city":"Beverly Hills","state_code":"CA","country_code":"USA","latitude":34.065013,"longitude":-118.373465,"location":{"type":"Point","coordinates":[-118.373465,34.065013]}},{"name":"OVGuide","category_code":"games_video","description":null,"address1":"","address2":"","zip_code":"","city":"Los Angeles","state_code":"CA","country_code":"USA","latitude":34.052187,"longitude":-118.243425,"location":{"type":"Point","coordinates":[-118.243425,34.052187]}},{"name":"Talend","category_code":"analytics","description":"HQ","address1":"5150 El Camino Real","address2":"Suite C-31","zip_code":"94022","city":"Los Altos","state_code":"CA","country_code":"USA","latitude":37.371908,"longitude":-122.111711,"location":{"type":"Point","coordinates":[-122.111711,37.371908]}},{"name":"Taleo","category_code":"software","description":"HQ","address1":"","address2":"","zip_code":"","city":"Dublin","state_code":"CA","country_code":"USA","latitude":37.09024,"longitude":-95.712891,"location":{"type":"Point","coordinates":[-95.712891,37.09024]}},{"name":"ESPN","category_code":"web","description":"Disney Interactive","address1":"500 South Buena Vista Street","address2":"Mail Code 7667","zip_code":"91521-7667","city":"Burbank","state_code":"CA","country_code":"USA","latitude":34.159434,"longitude":-118.324046,"location":{"type":"Point","coordinates":[-118.324046,34.159434]}},{"name":"The Economist Group","category_code":"web","description":null,"address1":"509 North June Street","address2":"","zip_code":"90004","city":"Los Angeles","state_code":"CA","country_code":"USA","latitude":34.080651,"longitude":-118.334436,"location":{"type":"Point","coordinates":[-118.334436,34.080651]}},{"name":"Autodesk","category_code":"software","description":"HQ","address1":"111 McInnis Parkway","address2":"","zip_code":"94903","city":"San Rafael","state_code":"CA","country_code":"USA","latitude":38.0062745,"longitude":-122.5315665,"location":{"type":"Point","coordinates":[-122.5315665,38.0062745]}},{"name":"Blue Coat Systems","category_code":"software","description":null,"address1":"420 N. Mary Avenue","address2":"","zip_code":"94085","city":"Sunnyvale","state_code":"CA","country_code":"USA","latitude":37.390753,"longitude":-122.039865,"location":{"type":"Point","coordinates":[-122.039865,37.390753]}},{"name":"TrafficZ","category_code":"web","description":null,"address1":"11300 W. Olympic Boulevard","address2":"Suite 900","zip_code":"90064","city":"Los Angeles","state_code":"CA","country_code":"USA","latitude":34.037542,"longitude":-118.441178,"location":{"type":"Point","coordinates":[-118.441178,34.037542]}},{"name":"OleOle","category_code":"network_hosting","description":null,"address1":"9777 Wilshire Blvd","address2":"Suite 1004","zip_code":"90212","city":"Beverly Hills","state_code":"CA","country_code":"USA","latitude":34.067153,"longitude":-118.409161,"location":{"type":"Point","coordinates":[-118.409161,34.067153]}},{"name":"Curl","category_code":"software","description":null,"address1":"One Cambridge Center","address2":"10th Floor","zip_code":"02142","city":"Cambridge","state_code":"MA","country_code":"USA","latitude":42.362993,"longitude":-71.086596,"location":{"type":"Point","coordinates":[-71.086596,42.362993]}},{"name":"GameFly","category_code":"games_video","description":"GameFly HQ","address1":"11405","address2":"Suite 110","zip_code":"90066","city":"Los Angeles","state_code":"CA","country_code":"USA","latitude":33.934558,"longitude":-118.3962622,"location":{"type":"Point","coordinates":[-118.3962622,33.934558]}},{"name":"iWin","category_code":"games_video","description":"","address1":"45 Fremont Street","address2":"Suite 3100","zip_code":"94105","city":"San Francisco","state_code":"CA","country_code":"USA","latitude":37.781689,"longitude":-122.391061,"location":{"type":"Point","coordinates":[-122.391061,37.781689]}},{"name":"Intelius","category_code":"web","description":null,"address1":"500 108th Ave NE","address2":"25th Floor","zip_code":"98004","city":"Bellevue","state_code":"WA","country_code":"USA","latitude":47.614723,"longitude":-122.196262,"location":{"type":"Point","coordinates":[-122.196262,47.614723]}},{"name":"VMware","category_code":"software","description":null,"address1":"3401 Hillview Ave","address2":"","zip_code":"94304","city":"Palo Alto","state_code":"CA","country_code":"USA","latitude":37.403315,"longitude":-122.145981,"location":{"type":"Point","coordinates":[-122.145981,37.403315]}},{"name":"PageUp People","category_code":"software","description":"","address1":"10475 Medlock Bridge Rd","address2":"Suite 310","zip_code":"30097","city":"Johns Creek","state_code":"GA","country_code":"USA","latitude":42.377224,"longitude":-76.295126,"location":{"type":"Point","coordinates":[-76.295126,42.377224]}},{"name":"ShopIt","category_code":"ecommerce","description":"","address1":"11726 San Vicente Blvd","address2":"Suite 420","zip_code":"90049","city":"Los Angeles","state_code":"CA","country_code":"USA","latitude":34.05304,"longitude":-118.46643,"location":{"type":"Point","coordinates":[-118.46643,34.05304]}},{"name":"YTB","category_code":"web","description":null,"address1":"1901 East Edwardsville Rd.","address2":"","zip_code":"62095","city":"Wood River","state_code":"IL","country_code":"USA","latitude":38.85872,"longitude":-90.069122,"location":{"type":"Point","coordinates":[-90.069122,38.85872]}},{"name":"Avaya","category_code":"software","description":"California","address1":"4655 Great America Parkway","address2":"","zip_code":"95054","city":"Santa Clara","state_code":"CA","country_code":"USA","latitude":37.398076,"longitude":-121.977333,"location":{"type":"Point","coordinates":[-121.977333,37.398076]}},{"name":"Avaya","category_code":"software","description":"HQ","address1":"211 Mt Airy Road","address2":"","zip_code":"07920","city":"Basking Ridge","state_code":"NJ","country_code":"USA","latitude":40.694956,"longitude":-74.577599,"location":{"type":"Point","coordinates":[-74.577599,40.694956]}},{"name":"iProspect","category_code":"software","description":"HQ","address1":"311 Arsenal Street","address2":"The Arsenal on the Charles","zip_code":"02472-2602","city":"Watertown","state_code":"MA","country_code":"USA","latitude":42.363764,"longitude":-71.166966,"location":{"type":"Point","coordinates":[-71.166966,42.363764]}},{"name":"iProspect","category_code":"software","description":"","address1":"401 N. Michigan Avenue","address2":"14th Floor","zip_code":"60611","city":"Chicago","state_code":"IL","country_code":"USA","latitude":41.8892858,"longitude":-87.6243646,"location":{"type":"Point","coordinates":[-87.6243646,41.8892858]}},{"name":"iProspect","category_code":"software","description":"","address1":"1021 Foch St.","address2":"","zip_code":"76107","city":"Fort Worth","state_code":"TX","country_code":"USA","latitude":32.7491379,"longitude":-97.3565529,"location":{"type":"Point","coordinates":[-97.3565529,32.7491379]}},{"name":"iProspect","category_code":"software","description":"","address1":"875 Howard Street","address2":"6th Floor","zip_code":"94103","city":"San Francisco","state_code":"CA","country_code":"USA","latitude":37.7819286,"longitude":-122.4041764,"location":{"type":"Point","coordinates":[-122.4041764,37.7819286]}},{"name":"Infusionsoft","category_code":"software","description":"","address1":"1260 S. Spectrum Blvd.","address2":"","zip_code":"85286","city":"Chandler","state_code":"AZ","country_code":"USA","latitude":33.2871748,"longitude":-111.8871813,"location":{"type":"Point","coordinates":[-111.8871813,33.2871748]}},{"name":"GlobalSCAPE","category_code":"software","description":null,"address1":"4500 Lockhill-Selma","address2":"Suite 150","zip_code":"78249","city":"San Antonio","state_code":"TX","country_code":"USA","latitude":29.584017,"longitude":-98.570189,"location":{"type":"Point","coordinates":[-98.570189,29.584017]}},{"name":"HireVue","category_code":"web","description":"Headquarters","address1":"10876 South River Front Parkway","address2":"Suite 600","zip_code":"84095","city":"South Jordan","state_code":"UT","country_code":"USA","latitude":40.554467,"longitude":-111.9137871,"location":{"type":"Point","coordinates":[-111.9137871,40.554467]}},{"name":"SwapDrive","category_code":"web","description":null,"address1":"1313 F St NW","address2":"","zip_code":"20004","city":"Washington","state_code":"DC","country_code":"USA","latitude":38.897566,"longitude":-77.030282,"location":{"type":"Point","coordinates":[-77.030282,38.897566]}},{"name":"CrimeReports","category_code":"web","description":"","address1":"2015 South 1100 East","address2":"","zip_code":"84106","city":"Salt Lake City","state_code":"UT","country_code":"USA","latitude":40.726342,"longitude":-111.858835,"location":{"type":"Point","coordinates":[-111.858835,40.726342]}},{"name":"Pervasive Software","category_code":"software","description":"HQ","address1":"12365-B Riata Trace Parkway","address2":"","zip_code":"78727","city":"Austin","state_code":"TX","country_code":"USA","latitude":30.428372,"longitude":-97.741937,"location":{"type":"Point","coordinates":[-97.741937,30.428372]}},{"name":"Blackboard","category_code":"software","description":"Corporate Headquarters","address1":"650 Massachusetts Avenue N.W.","address2":"6th Floor","zip_code":"20001-3796","city":"Washington","state_code":"DC","country_code":"USA","latitude":38.902429,"longitude":-77.021507,"location":{"type":"Point","coordinates":[-77.021507,38.902429]}},{"name":"Acronis","category_code":"software","description":"NA Headquarters","address1":"23 3rd Avenue","address2":"","zip_code":"01803","city":"Burlington","state_code":"MA","country_code":"USA","latitude":42.48774,"longitude":-71.223868,"location":{"type":"Point","coordinates":[-71.223868,42.48774]}},{"name":"Acronis","category_code":"software","description":"SFO","address1":"2200 Powell St.,","address2":"Suite 100","zip_code":"94608","city":"Emeryville","state_code":"CA","country_code":"USA","latitude":37.840054,"longitude":-122.29166,"location":{"type":"Point","coordinates":[-122.29166,37.840054]}},{"name":"SRA International","category_code":"consulting","description":"CORPORATE HEADQUARTERS","address1":"4300 Fair Lakes Court","address2":"","zip_code":"22033","city":"Fairfax","state_code":"VA","country_code":"USA","latitude":38.863995,"longitude":-77.379474,"location":{"type":"Point","coordinates":[-77.379474,38.863995]}},{"name":"Channel Intelligence","category_code":"web","description":"Corporate Headquarters","address1":"1180 Celebration Blvd.","address2":"Suite 101","zip_code":"34747","city":"Celebration","state_code":"FL","country_code":"USA","latitude":28.321337,"longitude":-81.552229,"location":{"type":"Point","coordinates":[-81.552229,28.321337]}},{"name":"Aspect Software","category_code":"software","description":"HQ","address1":"300 Apollo Drive","address2":"","zip_code":"01824","city":"Chelmsford","state_code":"MA","country_code":"USA","latitude":42.6005604,"longitude":-71.3277854,"location":{"type":"Point","coordinates":[-71.3277854,42.6005604]}},{"name":"CPXi","category_code":"web","description":"Headquarters (NYC)","address1":"1441 Broadway","address2":"18th Floor","zip_code":"10018","city":"New York","state_code":"NY","country_code":"USA","latitude":40.7550708,"longitude":-73.9869523,"location":{"type":"Point","coordinates":[-73.9869523,40.7550708]}},{"name":"Fandango","category_code":"games_video","description":"","address1":"12200 West Olympic Blvd","address2":"Suite 150","zip_code":"90064","city":"Los Angeles","state_code":"CA","country_code":"USA","latitude":34.031646,"longitude":-118.455352,"location":{"type":"Point","coordinates":[-118.455352,34.031646]}},{"name":"Photobucket","category_code":"web","description":"","address1":"2399 Blake Street, Suite 160","address2":"","zip_code":"80205","city":"Denver","state_code":"CO","country_code":"USA","latitude":47.601803,"longitude":-122.332085,"location":{"type":"Point","coordinates":[-122.332085,47.601803]}},{"name":"Crazy Egg","category_code":"web","description":"","address1":"13337 South St.","address2":"#269","zip_code":"90703","city":"cerritos","state_code":"CA","country_code":"USA","latitude":33.8587559,"longitude":-118.0477319,"location":{"type":"Point","coordinates":[-118.0477319,33.8587559]}},{"name":"Crazy Egg","category_code":"web","description":"","address1":"16220 Ridgeview Lane","address2":"","zip_code":"90638","city":"La Mirada","state_code":"CA","country_code":"USA","latitude":33.9115449,"longitude":-117.983856,"location":{"type":"Point","coordinates":[-117.983856,33.9115449]}},{"name":"LivePerson","category_code":"software","description":"Corporate Office","address1":"475 10th Avenue","address2":"5th Floor","zip_code":"10018","city":"New York","state_code":"NY","country_code":"USA","latitude":40.751969,"longitude":-73.99031,"location":{"type":"Point","coordinates":[-73.99031,40.751969]}},{"name":"LivePerson","category_code":"software","description":"Atlanta Office","address1":"2859 Paces Ferry Road NW","address2":"Suite 400","zip_code":"30339","city":"Atlanta","state_code":"GA","country_code":"USA","latitude":33.8656817,"longitude":-84.4709443,"location":{"type":"Point","coordinates":[-84.4709443,33.8656817]}},{"name":"thePlatform","category_code":"web","description":"Corporate Headquarters","address1":"1000 2nd Avenue","address2":"Suite 1000","zip_code":"98104","city":"Seattle","state_code":"WA","country_code":"USA","latitude":47.617838,"longitude":-122.356027,"location":{"type":"Point","coordinates":[-122.356027,47.617838]}},{"name":"Posterous","category_code":"web","description":"","address1":"","address2":"","zip_code":"","city":"San Francisco","state_code":"CA","country_code":"USA","latitude":37.775196,"longitude":-122.419204,"location":{"type":"Point","coordinates":[-122.419204,37.775196]}},{"name":"Red Hat","category_code":"software","description":"Corporate Headquarters","address1":"1801 Varsity Drive","address2":"","zip_code":"27606","city":"Raleigh","state_code":"NC","country_code":"USA","latitude":35.77402,"longitude":-78.677864,"location":{"type":"Point","coordinates":[-78.677864,35.77402]}},{"name":"CBeyond","category_code":"web","description":"","address1":"320 Interstate North Parkway","address2":"","zip_code":"30339","city":"Atlanta","state_code":"GA","country_code":"USA","latitude":33.894134,"longitude":-84.461941,"location":{"type":"Point","coordinates":[-84.461941,33.894134]}},{"name":"Xandros","category_code":"software","description":"","address1":"149 Madison Ave","address2":"Suite 302","zip_code":"10016","city":"New York","state_code":"NY","country_code":"USA","latitude":40.746368,"longitude":-73.983972,"location":{"type":"Point","coordinates":[-73.983972,40.746368]}},{"name":"Deloitte","category_code":"consulting","description":"","address1":"1633 Broadway","address2":"","zip_code":"","city":"New York","state_code":"NY","country_code":"USA","latitude":40.7618675,"longitude":-73.9837603,"location":{"type":"Point","coordinates":[-73.9837603,40.7618675]}},{"name":"Datapipe","category_code":"network_hosting","description":"USA Corporate Office","address1":"10 Exchange Place","address2":"","zip_code":"07302","city":"Jersey City","state_code":"NJ","country_code":"USA","latitude":40.71644,"longitude":-74.03392,"location":{"type":"Point","coordinates":[-74.03392,40.71644]}},{"name":"ON24","category_code":"web","description":"Corporate Headquarters","address1":"201 3rd Street","address2":"34d Floor","zip_code":"94103","city":"San Francisco","state_code":"CA","country_code":"USA","latitude":37.7850326,"longitude":-122.4004738,"location":{"type":"Point","coordinates":[-122.4004738,37.7850326]}},{"name":"ON24","category_code":"web","description":"New York Office","address1":"31 Howard Street","address2":"4th Floor","zip_code":"10013","city":"New York","state_code":"NY","country_code":"USA","latitude":40.719609,"longitude":-74.000754,"location":{"type":"Point","coordinates":[-74.000754,40.719609]}},{"name":"J2 Global Communications","category_code":"web","description":"","address1":"6922 Hollywood Blvd.","address2":"","zip_code":"90028","city":"Los Angeles","state_code":"CA","country_code":"USA","latitude":34.1015548,"longitude":-118.3406957,"location":{"type":"Point","coordinates":[-118.3406957,34.1015548]}},{"name":"Epocrates","category_code":"software","description":"Corporate Headquarters","address1":"1100 Park Place","address2":"Suite 300","zip_code":"94403","city":"San Mateo","state_code":"CA","country_code":"USA","latitude":37.544987,"longitude":-122.291394,"location":{"type":"Point","coordinates":[-122.291394,37.544987]}},{"name":"New York Media","category_code":"web","description":"","address1":"75 Varick Street","address2":"","zip_code":"10013","city":"New York","state_code":"NY","country_code":"USA","latitude":40.72276,"longitude":-74.006272,"location":{"type":"Point","coordinates":[-74.006272,40.72276]}},{"name":"Snipitron","category_code":"web","description":"Corporate Headquarters","address1":"850 West Jackson","address2":"Suite 400","zip_code":"60607","city":"Chicago","state_code":"IL","country_code":"USA","latitude":41.877913,"longitude":-87.649228,"location":{"type":"Point","coordinates":[-87.649228,41.877913]}},{"name":"Snipitron","category_code":"web","description":"Marketing & Sales","address1":"6B Liberty","address2":"Suite 210","zip_code":"92656","city":"Aliso Viejo","state_code":"CA","country_code":"USA","latitude":33.559392,"longitude":-117.729385,"location":{"type":"Point","coordinates":[-117.729385,33.559392]}},{"name":"GenArts","category_code":"games_video","description":"Corporate Headquarters","address1":"955 Massachusetts Ave","address2":"","zip_code":"02139","city":"Cambridge","state_code":"MA","country_code":"USA","latitude":42.369007,"longitude":-71.110276,"location":{"type":"Point","coordinates":[-71.110276,42.369007]}},{"name":"QlikTech","category_code":"software","description":"World Headquarters","address1":"150 Radnor Chester Road","address2":"","zip_code":"19087","city":"Radnor","state_code":"PA","country_code":"USA","latitude":40.037578,"longitude":-75.366299,"location":{"type":"Point","coordinates":[-75.366299,40.037578]}},{"name":"Xavier Media","category_code":"network_hosting","description":"Sales Office","address1":"","address2":"","zip_code":"33166","city":"Miami","state_code":"FL","country_code":"USA","latitude":25.8235041,"longitude":-80.3101684,"location":{"type":"Point","coordinates":[-80.3101684,25.8235041]}},{"name":"Brocade Communications Systems","category_code":"network_hosting","description":"Corporate Headquarters","address1":"1901 Guadalupe Pky","address2":"","zip_code":"95131","city":"San Jose","state_code":"CA","country_code":"USA","latitude":37.376066,"longitude":-121.926678,"location":{"type":"Point","coordinates":[-121.926678,37.376066]}},{"name":"Vertabase","category_code":"software","description":"","address1":"21221 Hilltop Street","address2":"","zip_code":"48033","city":"Southfield","state_code":"MI","country_code":"USA","latitude":42.4473352,"longitude":-83.286325,"location":{"type":"Point","coordinates":[-83.286325,42.4473352]}},{"name":"Black Duck Software","category_code":"software","description":"Headquarters","address1":"265 Winter Street","address2":"North Entrance","zip_code":"02451","city":"Waltham","state_code":"MA","country_code":"USA","latitude":42.398916,"longitude":-71.253998,"location":{"type":"Point","coordinates":[-71.253998,42.398916]}},{"name":"Black Duck Software","category_code":"software","description":"West Coast Office","address1":"1810 Gateway Drive","address2":"Suite 270","zip_code":"94404","city":"San Mateo","state_code":"CA","country_code":"USA","latitude":37.556152,"longitude":-122.281484,"location":{"type":"Point","coordinates":[-122.281484,37.556152]}},{"name":"Jenzabar","category_code":"software","description":"Harrisonburg","address1":"1401 Technology Drive","address2":"","zip_code":"22802","city":"Harrisonburg","state_code":"VA","country_code":"USA","latitude":38.464962,"longitude":-78.852721,"location":{"type":"Point","coordinates":[-78.852721,38.464962]}},{"name":"Jenzabar","category_code":"software","description":"Knoxville","address1":"308 North Peters Rd Ste 120","address2":"","zip_code":"37922","city":"Knoxville","state_code":"TN","country_code":"USA","latitude":35.915205,"longitude":-84.089029,"location":{"type":"Point","coordinates":[-84.089029,35.915205]}},{"name":"FundingUniverse","category_code":"web","description":"Company Headquarters","address1":"3630 W. South Jordan Pkwy","address2":"Suite 202","zip_code":"84095","city":"South Jordan","state_code":"UT","country_code":"USA","latitude":40.352274,"longitude":-111.776908,"location":{"type":"Point","coordinates":[-111.776908,40.352274]}},{"name":"ngmoco","category_code":"games_video","description":"Secret Factory","address1":"185 Berry Street","address2":"Suite 3000","zip_code":"94107","city":"San Francisco","state_code":"CA","country_code":"USA","latitude":37.7705096,"longitude":-122.4015807,"location":{"type":"Point","coordinates":[-122.4015807,37.7705096]}},{"name":"Alibris","category_code":"web","description":"Alibris","address1":"1250 45th Street","address2":"Suite 100","zip_code":"94608","city":"","state_code":"CA","country_code":"USA","latitude":37.834929,"longitude":-122.284944,"location":{"type":"Point","coordinates":[-122.284944,37.834929]}},{"name":"CraveOnline","category_code":"web","description":"Corporate Headquarters","address1":"5140 Goldleaf Circle","address2":"3rd Fl","zip_code":"90056","city":"Los Angeles","state_code":"CA","country_code":"USA","latitude":33.987978,"longitude":-118.362442,"location":{"type":"Point","coordinates":[-118.362442,33.987978]}},{"name":"NetQoS","category_code":"software","description":"Corporate Headquarters","address1":"5001 Plaza on the Lake","address2":"","zip_code":"78746","city":"Austin","state_code":"TX","country_code":"USA","latitude":30.34819,"longitude":-97.80058,"location":{"type":"Point","coordinates":[-97.80058,30.34819]}},{"name":"Tubefilter","category_code":"games_video","description":"Headquarters","address1":"5405 Wilshire Blvd","address2":"Suite 270","zip_code":"90036","city":"Los Angeles","state_code":"CA","country_code":"USA","latitude":34.070436,"longitude":-118.350486,"location":{"type":"Point","coordinates":[-118.350486,34.070436]}},{"name":"Mixed In Key","category_code":"software","description":"Mixed In Key Office","address1":"","address2":"","zip_code":"","city":"Rockville","state_code":"MD","country_code":"USA","latitude":39.083916,"longitude":-77.156823,"location":{"type":"Point","coordinates":[-77.156823,39.083916]}},{"name":"Occipital","category_code":"software","description":"Boulder Office","address1":"","address2":"","zip_code":"80302","city":"Boulder","state_code":"CO","country_code":"USA","latitude":40.018145,"longitude":-105.278109,"location":{"type":"Point","coordinates":[-105.278109,40.018145]}},{"name":"Pond5","category_code":"ecommerce","description":"Pond5","address1":"155 Water Street","address2":"Floor 6","zip_code":"11201","city":"Brooklyn","state_code":"NY","country_code":"USA","latitude":40.7032884,"longitude":-73.9878525,"location":{"type":"Point","coordinates":[-73.9878525,40.7032884]}},{"name":"Pond5","category_code":"ecommerce","description":"Pond5","address1":"419 Lafayette Street","address2":"Floor 2","zip_code":"10003","city":"New York","state_code":"NY","country_code":"USA","latitude":40.7280992,"longitude":-73.9933841,"location":{"type":"Point","coordinates":[-73.9933841,40.7280992]}},{"name":"CSC","category_code":"consulting","description":"Corporate Headquarters","address1":"3170 Fairview Park Drive","address2":"","zip_code":"22042","city":"Falls Church","state_code":"VA","country_code":"USA","latitude":38.859879,"longitude":-77.214756,"location":{"type":"Point","coordinates":[-77.214756,38.859879]}},{"name":"Adgregate Markets","category_code":"ecommerce","description":"HQ","address1":"28 Liberty Ship Way","address2":"Suite 2800","zip_code":"94965","city":"Sausalito","state_code":"CA","country_code":"USA","latitude":37.864435,"longitude":-122.490586,"location":{"type":"Point","coordinates":[-122.490586,37.864435]}},{"name":"Acxiom","category_code":"software","description":"","address1":"601 East Third Street","address2":"","zip_code":"72201","city":"Little Rock","state_code":"AR","country_code":"USA","latitude":34.7453104,"longitude":-92.2647169,"location":{"type":"Point","coordinates":[-92.2647169,34.7453104]}},{"name":"SpeakerMatch","category_code":"web","description":"","address1":"4807 Spicewood Springs Road","address2":"Building 2, Suite 118","zip_code":"78759","city":"Austin","state_code":"TX","country_code":"USA","latitude":30.379593,"longitude":-97.765313,"location":{"type":"Point","coordinates":[-97.765313,30.379593]}},{"name":"Lolapps","category_code":"web","description":"","address1":"116 New Montgomery","address2":"","zip_code":"94105","city":"San Francisco","state_code":"CA","country_code":"USA","latitude":37.7870923,"longitude":-122.3999719,"location":{"type":"Point","coordinates":[-122.3999719,37.7870923]}},{"name":"Internet Brands","category_code":"web","description":"HQ","address1":"909 North Sepulveda Blvd.","address2":"11th Floor","zip_code":"90245","city":"El Segundo","state_code":"CA","country_code":"USA","latitude":33.92997,"longitude":-118.39683,"location":{"type":"Point","coordinates":[-118.39683,33.92997]}},{"name":"Xactly Corp","category_code":"analytics","description":"World Headquarters","address1":"225 Santa Clara Street","address2":"1200","zip_code":"95113","city":"San Jose","state_code":"CA","country_code":"USA","latitude":37.334738,"longitude":-121.891516,"location":{"type":"Point","coordinates":[-121.891516,37.334738]}},{"name":"Xactly Corp","category_code":"analytics","description":"Eastern HQ","address1":"101 Federal St, Suite 1900","address2":"","zip_code":"02110","city":"Boston","state_code":"MA","country_code":"USA","latitude":42.355077,"longitude":-71.056928,"location":{"type":"Point","coordinates":[-71.056928,42.355077]}},{"name":"3Com","category_code":"web","description":"3Com Corporate HQ","address1":"350 Campus Dr","address2":"","zip_code":"01752","city":"Marlborough","state_code":"MA","country_code":"USA","latitude":42.326722,"longitude":-71.58432,"location":{"type":"Point","coordinates":[-71.58432,42.326722]}},{"name":"Cruvee","category_code":"web","description":"Napa Office","address1":"1250 Main Street","address2":"Ste 270","zip_code":"94559","city":"Napa","state_code":"CA","country_code":"USA","latitude":38.3010857,"longitude":-122.2870103,"location":{"type":"Point","coordinates":[-122.2870103,38.3010857]}},{"name":"Groove Club","category_code":"games_video","description":"Groove Club LLC","address1":"552 Valley Brook Ave, Suite 1","address2":"","zip_code":"07071","city":"Lyndhurst","state_code":"NJ","country_code":"USA","latitude":40.809076,"longitude":-74.119948,"location":{"type":"Point","coordinates":[-74.119948,40.809076]}},{"name":"Tubefilter","category_code":"games_video","description":"Headquarters","address1":"5405 Wilshire Blvd","address2":"Suite 270","zip_code":"90036","city":"Los Angeles","state_code":"CA","country_code":"USA","latitude":34.070436,"longitude":-118.350486,"location":{"type":"Point","coordinates":[-118.350486,34.070436]}},{"name":"Mixed In Key","category_code":"software","description":"Mixed In Key Office","address1":"","address2":"","zip_code":"","city":"Rockville","state_code":"MD","country_code":"USA","latitude":39.083916,"longitude":-77.156823,"location":{"type":"Point","coordinates":[-77.156823,39.083916]}},{"name":"Occipital","category_code":"software","description":"Boulder Office","address1":"","address2":"","zip_code":"80302","city":"Boulder","state_code":"CO","country_code":"USA","latitude":40.018145,"longitude":-105.278109,"location":{"type":"Point","coordinates":[-105.278109,40.018145]}},{"name":"Pond5","category_code":"ecommerce","description":"Pond5","address1":"155 Water Street","address2":"Floor 6","zip_code":"11201","city":"Brooklyn","state_code":"NY","country_code":"USA","latitude":40.7032884,"longitude":-73.9878525,"location":{"type":"Point","coordinates":[-73.9878525,40.7032884]}},{"name":"Pond5","category_code":"ecommerce","description":"Pond5","address1":"419 Lafayette Street","address2":"Floor 2","zip_code":"10003","city":"New York","state_code":"NY","country_code":"USA","latitude":40.7280992,"longitude":-73.9933841,"location":{"type":"Point","coordinates":[-73.9933841,40.7280992]}},{"name":"CSC","category_code":"consulting","description":"Corporate Headquarters","address1":"3170 Fairview Park Drive","address2":"","zip_code":"22042","city":"Falls Church","state_code":"VA","country_code":"USA","latitude":38.859879,"longitude":-77.214756,"location":{"type":"Point","coordinates":[-77.214756,38.859879]}},{"name":"Adgregate Markets","category_code":"ecommerce","description":"HQ","address1":"28 Liberty Ship Way","address2":"Suite 2800","zip_code":"94965","city":"Sausalito","state_code":"CA","country_code":"USA","latitude":37.864435,"longitude":-122.490586,"location":{"type":"Point","coordinates":[-122.490586,37.864435]}},{"name":"Acxiom","category_code":"software","description":"","address1":"601 East Third Street","address2":"","zip_code":"72201","city":"Little Rock","state_code":"AR","country_code":"USA","latitude":34.7453104,"longitude":-92.2647169,"location":{"type":"Point","coordinates":[-92.2647169,34.7453104]}},{"name":"SpeakerMatch","category_code":"web","description":"","address1":"4807 Spicewood Springs Road","address2":"Building 2, Suite 118","zip_code":"78759","city":"Austin","state_code":"TX","country_code":"USA","latitude":30.379593,"longitude":-97.765313,"location":{"type":"Point","coordinates":[-97.765313,30.379593]}},{"name":"Lolapps","category_code":"web","description":"","address1":"116 New Montgomery","address2":"","zip_code":"94105","city":"San Francisco","state_code":"CA","country_code":"USA","latitude":37.7870923,"longitude":-122.3999719,"location":{"type":"Point","coordinates":[-122.3999719,37.7870923]}},{"name":"Internet Brands","category_code":"web","description":"HQ","address1":"909 North Sepulveda Blvd.","address2":"11th Floor","zip_code":"90245","city":"El Segundo","state_code":"CA","country_code":"USA","latitude":33.92997,"longitude":-118.39683,"location":{"type":"Point","coordinates":[-118.39683,33.92997]}},{"name":"Xactly Corp","category_code":"analytics","description":"World Headquarters","address1":"225 Santa Clara Street","address2":"1200","zip_code":"95113","city":"San Jose","state_code":"CA","country_code":"USA","latitude":37.334738,"longitude":-121.891516,"location":{"type":"Point","coordinates":[-121.891516,37.334738]}},{"name":"Xactly Corp","category_code":"analytics","description":"Eastern HQ","address1":"101 Federal St, Suite 1900","address2":"","zip_code":"02110","city":"Boston","state_code":"MA","country_code":"USA","latitude":42.355077,"longitude":-71.056928,"location":{"type":"Point","coordinates":[-71.056928,42.355077]}},{"name":"3Com","category_code":"web","description":"3Com Corporate HQ","address1":"350 Campus Dr","address2":"","zip_code":"01752","city":"Marlborough","state_code":"MA","country_code":"USA","latitude":42.326722,"longitude":-71.58432,"location":{"type":"Point","coordinates":[-71.58432,42.326722]}},{"name":"Cruvee","category_code":"web","description":"Napa Office","address1":"1250 Main Street","address2":"Ste 270","zip_code":"94559","city":"Napa","state_code":"CA","country_code":"USA","latitude":38.3010857,"longitude":-122.2870103,"location":{"type":"Point","coordinates":[-122.2870103,38.3010857]}},{"name":"Groove Club","category_code":"games_video","description":"Groove Club LLC","address1":"552 Valley Brook Ave, Suite 1","address2":"","zip_code":"07071","city":"Lyndhurst","state_code":"NJ","country_code":"USA","latitude":40.809076,"longitude":-74.119948,"location":{"type":"Point","coordinates":[-74.119948,40.809076]}},{"name":"Esri","category_code":"software","description":"Headquarters","address1":"380 New York St","address2":"","zip_code":"92373","city":"Redlands","state_code":"CA","country_code":"USA","latitude":34.057165,"longitude":-117.194152,"location":{"type":"Point","coordinates":[-117.194152,34.057165]}},{"name":"Auctiva","category_code":"ecommerce","description":"Headquarters","address1":"360 E. 6th St","address2":"","zip_code":"95928","city":"Chico","state_code":"CA","country_code":"USA","latitude":39.7293,"longitude":-121.835193,"location":{"type":"Point","coordinates":[-121.835193,39.7293]}},{"name":"Groupon","category_code":"web","description":"HQ","address1":"600 W. Chicago Ave","address2":"Suite 400","zip_code":"60654","city":"Chicago","state_code":"IL","country_code":"USA","latitude":41.8965162,"longitude":-87.643622,"location":{"type":"Point","coordinates":[-87.643622,41.8965162]}},{"name":"Smule","category_code":"music","description":"Smule HQ","address1":"139 Townsend Street","address2":"Suite 200","zip_code":"94107","city":"San Francisco","state_code":"CA","country_code":"USA","latitude":37.779624,"longitude":-122.391236,"location":{"type":"Point","coordinates":[-122.391236,37.779624]}},{"name":"FamilyLink","category_code":"web","description":"FamilyLink.com, Inc.","address1":"4778 N 300 W #230","address2":"","zip_code":"84604","city":"Provo","state_code":"UT","country_code":"USA","latitude":40.250096,"longitude":-111.643179,"location":{"type":"Point","coordinates":[-111.643179,40.250096]}},{"name":"PlumChoice","category_code":"consulting","description":"","address1":"5 Federal Street","address2":"","zip_code":"01821","city":"Billerica","state_code":"MA","country_code":"USA","latitude":42.542356,"longitude":-71.279966,"location":{"type":"Point","coordinates":[-71.279966,42.542356]}},{"name":"Mindjet","category_code":"software","description":"Head Office","address1":"1160 Battery Street East","address2":"4th Floor","zip_code":"94111","city":"San Francisco","state_code":"CA","country_code":"USA","latitude":50.095312,"longitude":9.049981,"location":{"type":"Point","coordinates":[9.049981,50.095312]}},{"name":"THQ","category_code":"games_video","description":"THQ North America","address1":"29903 Agoura Road","address2":"","zip_code":"91301","city":"Agoura Hills","state_code":"CA","country_code":"USA","latitude":34.145984,"longitude":-118.776083,"location":{"type":"Point","coordinates":[-118.776083,34.145984]}},{"name":"ExactTarget","category_code":"software","description":"","address1":"20 North Meridian Street","address2":"","zip_code":"46204","city":"Indianapolis","state_code":"IN","country_code":"USA","latitude":39.7672093,"longitude":-86.1580785,"location":{"type":"Point","coordinates":[-86.1580785,39.7672093]}},{"name":"Hologic","category_code":"biotech","description":"","address1":"35 Crosby Drive","address2":"","zip_code":"01730","city":"Bedford","state_code":"MA","country_code":"USA","latitude":42.509911,"longitude":-71.241964,"location":{"type":"Point","coordinates":[-71.241964,42.509911]}},{"name":"Kiwibox","category_code":"web","description":"","address1":"330 W 38th Street","address2":"Suite 1602","zip_code":"10018","city":"New York","state_code":"NY","country_code":"USA","latitude":40.755243,"longitude":-73.9935,"location":{"type":"Point","coordinates":[-73.9935,40.755243]}},{"name":"Buzzr","category_code":"software","description":"Buzzr.com","address1":"38 W 21st St","address2":"3rd Floor","zip_code":"10010","city":"New York","state_code":"NY","country_code":"USA","latitude":40.740941,"longitude":-73.992609,"location":{"type":"Point","coordinates":[-73.992609,40.740941]}},{"name":"Websense","category_code":"software","description":"Headquarters","address1":"10240 Sorrento Valley Rd","address2":"","zip_code":"92121","city":"San Diego","state_code":"CA","country_code":"USA","latitude":32.890757,"longitude":-117.211026,"location":{"type":"Point","coordinates":[-117.211026,32.890757]}},{"name":"Websense","category_code":"software","description":"North America","address1":"973 University Avenue","address2":"","zip_code":"95032","city":"Los Gatos","state_code":"CA","country_code":"USA","latitude":37.2485689,"longitude":-121.9665699,"location":{"type":"Point","coordinates":[-121.9665699,37.2485689]}},{"name":"Websense","category_code":"software","description":"North America","address1":"100 Highland Park Village","address2":"Suite 214","zip_code":"75205","city":"Dallas","state_code":"TX","country_code":"USA","latitude":32.836277,"longitude":-96.806578,"location":{"type":"Point","coordinates":[-96.806578,32.836277]}},{"name":"Image Metrics","category_code":"software","description":"","address1":"1918 Main Street,","address2":"2nd Floor","zip_code":"90405","city":"Santa Monica","state_code":"CA","country_code":"USA","latitude":34.007303,"longitude":-118.489492,"location":{"type":"Point","coordinates":[-118.489492,34.007303]}},{"name":"GotGame","category_code":"games_video","description":"GotGame HQ","address1":"1 Bluxome Place","address2":"Suite 204","zip_code":"94107","city":"San Francisco","state_code":"CA","country_code":"USA","latitude":37.77772,"longitude":-122.395785,"location":{"type":"Point","coordinates":[-122.395785,37.77772]}},{"name":"SolarCity","category_code":"cleantech","description":"HQ","address1":"3055 Clearview Way","address2":"","zip_code":"94402","city":"San Mateo","state_code":"CA","country_code":"USA","latitude":37.563039,"longitude":-122.277639,"location":{"type":"Point","coordinates":[-122.277639,37.563039]}},{"name":"HomeAdvisor","category_code":"web","description":"HQ","address1":"14023 Denver West Pkwy Building 64","address2":"","zip_code":"80401-3253","city":"Lakewood","state_code":"CO","country_code":"USA","latitude":39.745092,"longitude":-105.158207,"location":{"type":"Point","coordinates":[-105.158207,39.745092]}},{"name":"BlackStratus","category_code":"software","description":"Corporate Headquarters","address1":"200 Metroplex Dr.","address2":"","zip_code":"08817","city":"Edison","state_code":"NJ","country_code":"USA","latitude":40.5212078,"longitude":-74.4107711,"location":{"type":"Point","coordinates":[-74.4107711,40.5212078]}},{"name":"Endurance International","category_code":"network_hosting","description":"Endurance International","address1":"10 Corporate Drive","address2":"Suite 300","zip_code":"01803","city":"Burlington","state_code":"MA","country_code":"USA","latitude":42.4969894,"longitude":-71.192851,"location":{"type":"Point","coordinates":[-71.192851,42.4969894]}},{"name":"ReverbNation","category_code":"software","description":"ReverbNation HQ","address1":"115 N Duke St.","address2":"Suite 2A","zip_code":"27701","city":"Durham","state_code":"NC","country_code":"USA","latitude":36.002893,"longitude":-78.904075,"location":{"type":"Point","coordinates":[-78.904075,36.002893]}},{"name":"ReverbNation","category_code":"software","description":"ReverbNation NYC","address1":"555 8th Ave","address2":"Suite 909","zip_code":"10008","city":"New York","state_code":"NY","country_code":"USA","latitude":40.718888,"longitude":-74.001169,"location":{"type":"Point","coordinates":[-74.001169,40.718888]}},{"name":"Brickfish","category_code":"software","description":"Corporate Office","address1":"180 N Stetson Ave, 43 Floor","address2":"Two Prudential Plaza","zip_code":"60601","city":"Chicago","state_code":"IL","country_code":"USA","latitude":41.8851542,"longitude":-87.6223183,"location":{"type":"Point","coordinates":[-87.6223183,41.8851542]}},{"name":"Next Jump","category_code":"ecommerce","description":"Corporate HQ","address1":"261 Fifth Avenue","address2":"8th Floor","zip_code":"10016","city":"New York","state_code":"NY","country_code":"USA","latitude":40.7451545,"longitude":-73.9869549,"location":{"type":"Point","coordinates":[-73.9869549,40.7451545]}},{"name":"38 Studios","category_code":"games_video","description":"Headquarters","address1":"5 Clock Tower Place","address2":"Suite 140","zip_code":"01754","city":"Maynard","state_code":"MA","country_code":"USA","latitude":42.431652,"longitude":-71.455658,"location":{"type":"Point","coordinates":[-71.455658,42.431652]}},{"name":"Virgance","category_code":"web","description":"Virgance","address1":"164 S. Park St.","address2":"","zip_code":"94107","city":"San Francisco","state_code":"CA","country_code":"USA","latitude":37.781262,"longitude":-122.394958,"location":{"type":"Point","coordinates":[-122.394958,37.781262]}},{"name":"Trivantis Corporation","category_code":"software","description":"World Headquarters","address1":"311 Elm Street","address2":"Suite 200","zip_code":"45202","city":"Cincinnati","state_code":"OH","country_code":"USA","latitude":39.0987863,"longitude":-84.5157135,"location":{"type":"Point","coordinates":[-84.5157135,39.0987863]}},{"name":"Geomagic","category_code":"software","description":"World Headquarters","address1":"3200 East Hwy 54","address2":"Cape Fear Building, Suite 300","zip_code":"27709","city":"Durham","state_code":"NC","country_code":"USA","latitude":35.8962338,"longitude":-78.8733184,"location":{"type":"Point","coordinates":[-78.8733184,35.8962338]}},{"name":"Sendmail","category_code":"software","description":"","address1":"6475 Christie Ave.,","address2":"Suite 350","zip_code":"94608","city":"Emeryville","state_code":"CA","country_code":"USA","latitude":37.8454819,"longitude":-122.296342,"location":{"type":"Point","coordinates":[-122.296342,37.8454819]}},{"name":"Double Encore","category_code":"software","description":"Double Encore, Inc","address1":"820 16th Street","address2":"Suite 700","zip_code":"80202","city":"Denver","state_code":"CO","country_code":"USA","latitude":39.69263,"longitude":-104.955012,"location":{"type":"Point","coordinates":[-104.955012,39.69263]}},{"name":"LogMeIn","category_code":"software","description":"World Headquarters","address1":"500 Unicorn Park Drive","address2":"","zip_code":"01801","city":"Woburn","state_code":"MA","country_code":"USA","latitude":42.486535,"longitude":-71.115413,"location":{"type":"Point","coordinates":[-71.115413,42.486535]}},{"name":"ZeroTurnaround","category_code":"software","description":"Tartu","address1":"\u00c3\u0153likooli 2","address2":"","zip_code":"51003","city":"Tartu","state_code":"MA","country_code":"USA","latitude":58.3820542,"longitude":26.731054,"location":{"type":"Point","coordinates":[26.731054,58.3820542]}},{"name":"Novell","category_code":"software","description":"","address1":"404 Wyman Street","address2":"Suite 500","zip_code":"02451","city":"Waltham","state_code":"MA","country_code":"USA","latitude":42.409853,"longitude":-71.256461,"location":{"type":"Point","coordinates":[-71.256461,42.409853]}},{"name":"LoopNet","category_code":"ecommerce","description":"LoopNet Headquarters","address1":"185 Berry Street","address2":"Suite 4000","zip_code":"94107","city":"San Francisco","state_code":"CA","country_code":"USA","latitude":37.7759421,"longitude":-122.3931139,"location":{"type":"Point","coordinates":[-122.3931139,37.7759421]}},{"name":"MixMatchMusic","category_code":"games_video","description":"PO Box","address1":"1325 Howard Avenue","address2":"#923","zip_code":"94010","city":"Burlingame","state_code":"CA","country_code":"USA","latitude":37.5768841,"longitude":-122.3462137,"location":{"type":"Point","coordinates":[-122.3462137,37.5768841]}},{"name":"HSW International","category_code":"web","description":"HSW Intl","address1":"Six Concourse Parkway","address2":"Suite 1500","zip_code":"30328","city":"Atlanta","state_code":"GA","country_code":"USA","latitude":33.8615101,"longitude":-84.3515172,"location":{"type":"Point","coordinates":[-84.3515172,33.8615101]}},{"name":"DispatchThis","category_code":"web","description":"Omaha Office","address1":"621 S. 37th St. #209","address2":"","zip_code":"68105","city":"omaha","state_code":"NE","country_code":"USA","latitude":41.2539279,"longitude":-95.96759,"location":{"type":"Point","coordinates":[-95.96759,41.2539279]}},{"name":"The Advisory Board Company","category_code":"biotech","description":"HQ","address1":"2445 M St NW","address2":"","zip_code":"20037","city":"Washington","state_code":"DC","country_code":"USA","latitude":38.9055777,"longitude":-77.0526052,"location":{"type":"Point","coordinates":[-77.0526052,38.9055777]}},{"name":"Informatica","category_code":"software","description":"","address1":"100 Cardinal Way","address2":"","zip_code":"94063","city":"Redwood City","state_code":"CA","country_code":"USA","latitude":37.504328,"longitude":-122.219979,"location":{"type":"Point","coordinates":[-122.219979,37.504328]}},{"name":"SAS","category_code":"software","description":"","address1":"100 SAS Campus Drive","address2":"","zip_code":"27513","city":"Cary","state_code":"NC","country_code":"USA","latitude":35.8293514,"longitude":-78.765676,"location":{"type":"Point","coordinates":[-78.765676,35.8293514]}},{"name":"Bitam","category_code":"software","description":"","address1":"11710 Plaza America Drive","address2":"Suite 2000 PMB 3A","zip_code":"20190","city":"Reston","state_code":"VA","country_code":"USA","latitude":38.952289,"longitude":-77.351006,"location":{"type":"Point","coordinates":[-77.351006,38.952289]}},{"name":"Quest Software","category_code":"software","description":"","address1":"5 Polaris Way","address2":"","zip_code":"92656","city":"Aliso Viejo","state_code":"CA","country_code":"USA","latitude":33.5838704,"longitude":-117.7238407,"location":{"type":"Point","coordinates":[-117.7238407,33.5838704]}},{"name":"SolarWinds","category_code":"software","description":"HQ","address1":"3711 South MoPac Expressway","address2":"Building Two","zip_code":"78746","city":"Austin","state_code":"TX","country_code":"USA","latitude":30.245535,"longitude":-97.805621,"location":{"type":"Point","coordinates":[-97.805621,30.245535]}},{"name":"StockTwits","category_code":"web","description":"","address1":"600 West Broadway","address2":"Suite 910","zip_code":"92101","city":"San Diego","state_code":"CA","country_code":"USA","latitude":32.7161896,"longitude":-117.168697,"location":{"type":"Point","coordinates":[-117.168697,32.7161896]}},{"name":"ClickSquared","category_code":"software","description":"","address1":"280 Summer St","address2":"6th Floor","zip_code":"02210","city":"Boston","state_code":"MA","country_code":"USA","latitude":42.3913892,"longitude":-71.2709869,"location":{"type":"Point","coordinates":[-71.2709869,42.3913892]}},{"name":"Anystream","category_code":"software","description":"HQ","address1":"21000 Atlantic Boulevard","address2":"6th Floor","zip_code":"20166","city":"Dulles","state_code":"VA","country_code":"USA","latitude":39.035298,"longitude":-77.430125,"location":{"type":"Point","coordinates":[-77.430125,39.035298]}},{"name":"Anystream","category_code":"software","description":"Boston Office","address1":"281 Winter Street","address2":"Suite 310","zip_code":"02451","city":"Waltham","state_code":"MD","country_code":"USA","latitude":42.400416,"longitude":-71.255286,"location":{"type":"Point","coordinates":[-71.255286,42.400416]}},{"name":"Histogenics","category_code":"biotech","description":"","address1":"830 Winter Street,","address2":"3rd Floor","zip_code":"02451","city":"Waltham","state_code":"MA","country_code":"USA","latitude":42.4001965,"longitude":-71.2751097,"location":{"type":"Point","coordinates":[-71.2751097,42.4001965]}},{"name":"Proofpoint","category_code":"software","description":"","address1":"892 Ross Drive","address2":"","zip_code":"94089","city":"Sunnyvale","state_code":"CA","country_code":"USA","latitude":37.400751,"longitude":-122.031591,"location":{"type":"Point","coordinates":[-122.031591,37.400751]}},{"name":"Bristol-Myers Squibb","category_code":"biotech","description":"HQ","address1":"345 Park Avenue","address2":"","zip_code":"10154","city":"New York","state_code":"NY","country_code":"USA","latitude":40.757716,"longitude":-73.972321,"location":{"type":"Point","coordinates":[-73.972321,40.757716]}},{"name":"Safari Books Online","category_code":"web","description":"","address1":"1003 Gravenstein Highway North","address2":"","zip_code":"95472","city":"Sebastopol","state_code":"CA","country_code":"USA","latitude":38.410839,"longitude":-122.8414834,"location":{"type":"Point","coordinates":[-122.8414834,38.410839]}},{"name":"Silver Spring Networks","category_code":"network_hosting","description":"","address1":"575 Broadway Street","address2":"","zip_code":"94063","city":"Redwood City","state_code":"CA","country_code":"USA","latitude":37.4858629,"longitude":-122.2067269,"location":{"type":"Point","coordinates":[-122.2067269,37.4858629]}},{"name":"Sybase","category_code":"software","description":"HQ","address1":"One Sybase Drive","address2":"","zip_code":"94568","city":"Dublin","state_code":"CA","country_code":"USA","latitude":37.7063789,"longitude":-121.8903415,"location":{"type":"Point","coordinates":[-121.8903415,37.7063789]}},{"name":"Zapoint","category_code":"consulting","description":"","address1":"7 Harvard Square,","address2":"Suite 2B,","zip_code":"02445","city":"Brookline","state_code":"MA","country_code":"USA","latitude":42.3330615,"longitude":-71.1187156,"location":{"type":"Point","coordinates":[-71.1187156,42.3330615]}},{"name":"Questex Media Group","category_code":"web","description":"Group Headquarters","address1":"275 Grove Street, Suite 2-130","address2":"","zip_code":"02466","city":"Newton","state_code":"MD","country_code":"USA","latitude":38.75868,"longitude":-75.904815,"location":{"type":"Point","coordinates":[-75.904815,38.75868]}},{"name":"Double Fusion","category_code":"web","description":"HQ","address1":"300 Beale Street,","address2":"Suite D","zip_code":"94105","city":"San Francisco","state_code":"CA","country_code":"USA","latitude":37.7887135,"longitude":-122.3927145,"location":{"type":"Point","coordinates":[-122.3927145,37.7887135]}},{"name":"Mantara","category_code":"software","description":"Headquarters","address1":"215 Park Avenue South","address2":"20th Floor","zip_code":"10003","city":"New York","state_code":"NY","country_code":"USA","latitude":40.726517,"longitude":-74.032177,"location":{"type":"Point","coordinates":[-74.032177,40.726517]}},{"name":"Tendril","category_code":"software","description":"","address1":"1580 55th St","address2":"Suite 100","zip_code":"80301","city":"Boulder","state_code":"CO","country_code":"USA","latitude":40.026422,"longitude":-105.228284,"location":{"type":"Point","coordinates":[-105.228284,40.026422]}},{"name":"Aristotle","category_code":"software","description":"Headquarters","address1":"205 Pennsylvania Ave, SE","address2":"","zip_code":"20003","city":"Washington","state_code":"DC","country_code":"USA","latitude":38.887249,"longitude":-77.003188,"location":{"type":"Point","coordinates":[-77.003188,38.887249]}},{"name":"Adaptive Planning","category_code":"software","description":"Headquarters","address1":"2041 Landings Drive","address2":"Building N","zip_code":"94043","city":"Mountain View","state_code":"CA","country_code":"USA","latitude":37.4192309,"longitude":-122.0887097,"location":{"type":"Point","coordinates":[-122.0887097,37.4192309]}},{"name":"Spare Backup","category_code":"web","description":"","address1":"72-757 Fred Waring Drive","address2":"","zip_code":"92260","city":"Palm Desert","state_code":"CA","country_code":"USA","latitude":33.7289407,"longitude":-116.380302,"location":{"type":"Point","coordinates":[-116.380302,33.7289407]}},{"name":"Roundbox","category_code":"software","description":"HQ","address1":"25 Hanover Road","address2":"Building A, Suite 101","zip_code":"07932","city":"Florham Park","state_code":"NJ","country_code":"USA","latitude":40.79034,"longitude":-74.385196,"location":{"type":"Point","coordinates":[-74.385196,40.79034]}},{"name":"Roundbox","category_code":"software","description":"West Coast","address1":"215 Second Street","address2":"","zip_code":"94105","city":"San Francisco","state_code":"CA","country_code":"USA","latitude":37.7864636,"longitude":-122.3978187,"location":{"type":"Point","coordinates":[-122.3978187,37.7864636]}},{"name":"Vocalocity","category_code":"software","description":"Headquarters","address1":"1375 Peachtree Street NE","address2":"2 Floor","zip_code":"30309","city":"Atlanta","state_code":"GA","country_code":"USA","latitude":33.7812614,"longitude":-84.3675617,"location":{"type":"Point","coordinates":[-84.3675617,33.7812614]}},{"name":"UGO Entertainment","category_code":"web","description":"","address1":"670 Broadway","address2":"2nd Floor","zip_code":"10012","city":"New York","state_code":"NY","country_code":"USA","latitude":40.727216,"longitude":-73.994797,"location":{"type":"Point","coordinates":[-73.994797,40.727216]}},{"name":"Citrix Systems","category_code":"software","description":"HQ","address1":"851 West Cypress Creek Road","address2":"","zip_code":"33309","city":"Fort Lauderdale","state_code":"FL","country_code":"USA","latitude":26.20382,"longitude":-80.154212,"location":{"type":"Point","coordinates":[-80.154212,26.20382]}},{"name":"YouGov","category_code":"consulting","description":"PaloAlto Office","address1":"285 Hamilton Avenue","address2":"Suite 200","zip_code":"94301","city":"Palo Alto","state_code":"CA","country_code":"USA","latitude":37.445111,"longitude":-122.160779,"location":{"type":"Point","coordinates":[-122.160779,37.445111]}},{"name":"DemandTec","category_code":"software","description":"Corporate Headquarters","address1":"1 Circle Star Way, Suite 200","address2":"","zip_code":"94070","city":"San Carlos","state_code":"CA","country_code":"USA","latitude":37.498842,"longitude":-122.239815,"location":{"type":"Point","coordinates":[-122.239815,37.498842]}},{"name":"Untangle","category_code":"software","description":"","address1":"298 South Sunnyvale Avenue Suite 210","address2":"","zip_code":"94086","city":"Sunnyvale","state_code":"CA","country_code":"USA","latitude":37.5374322,"longitude":-122.3262074,"location":{"type":"Point","coordinates":[-122.3262074,37.5374322]}},{"name":"Granicus","category_code":"software","description":"Headquarters","address1":"600 Harrison Street","address2":"Suite 120","zip_code":"94107","city":"San Francisco","state_code":"CA","country_code":"USA","latitude":37.787445,"longitude":-122.397847,"location":{"type":"Point","coordinates":[-122.397847,37.787445]}},{"name":"Progen Pharmaceuticals Limited","category_code":"biotech","description":"USA","address1":"3 Twin Dolphin Dr Suite 100","address2":"","zip_code":"94065-1517","city":"Redwood City","state_code":"CA","country_code":"USA","latitude":37.5284501,"longitude":-122.2637214,"location":{"type":"Point","coordinates":[-122.2637214,37.5284501]}},{"name":"Riverbed Technology","category_code":"software","description":"Headquarters","address1":"199 Fremont St.","address2":"","zip_code":"94105","city":"San Francisco","state_code":"CA","country_code":"USA","latitude":37.7892685,"longitude":-122.3951844,"location":{"type":"Point","coordinates":[-122.3951844,37.7892685]}},{"name":"Attensity","category_code":"software","description":"Company Headquarters","address1":"2465 East Bayshore Road","address2":"Suite 300","zip_code":"94303","city":"Palo Alto","state_code":"CA","country_code":"USA","latitude":37.4483493,"longitude":-122.1191513,"location":{"type":"Point","coordinates":[-122.1191513,37.4483493]}},{"name":"Short's Travel Management","category_code":"web","description":"HQ","address1":"7815 Floyd","address2":"","zip_code":"66204","city":"Overland Park","state_code":"KS","country_code":"USA","latitude":38.987122,"longitude":-94.668487,"location":{"type":"Point","coordinates":[-94.668487,38.987122]}},{"name":"Rivermine Software","category_code":"software","description":"HQ","address1":"3975 Fair Ridge Drive","address2":"Suite 350 South","zip_code":"22033-2924","city":"Fairfax","state_code":"VA","country_code":"USA","latitude":38.872668,"longitude":-77.367981,"location":{"type":"Point","coordinates":[-77.367981,38.872668]}},{"name":"RealD","category_code":"games_video","description":"HQ","address1":"100 North Crescent Dr.,","address2":"Suite 120","zip_code":"90210","city":"Beverly Hills","state_code":"CA","country_code":"USA","latitude":34.067554,"longitude":-118.395658,"location":{"type":"Point","coordinates":[-118.395658,34.067554]}},{"name":"LiveCargo","category_code":"software","description":"","address1":"6520 Airport Center Drive","address2":"Suite 102","zip_code":"27409","city":"Greensboro","state_code":"NC","country_code":"USA","latitude":36.109705,"longitude":-79.958828,"location":{"type":"Point","coordinates":[-79.958828,36.109705]}},{"name":"2Wire","category_code":"web","description":"","address1":"1704 Automation Parkway","address2":"","zip_code":"95131","city":"San Jose","state_code":"CA","country_code":"USA","latitude":37.389862,"longitude":-121.882673,"location":{"type":"Point","coordinates":[-121.882673,37.389862]}},{"name":"WANdisco","category_code":"software","description":"US HQ","address1":"5000 Executive Pkwy","address2":"Suite 205","zip_code":"94583","city":"San Ramon","state_code":"CA","country_code":"USA","latitude":37.769205,"longitude":-121.966395,"location":{"type":"Point","coordinates":[-121.966395,37.769205]}},{"name":"South49 Solutions","category_code":"software","description":"","address1":"21240 Ridgetop Circle,","address2":"Suite 115","zip_code":"20166","city":"Sterling","state_code":"VA","country_code":"USA","latitude":39.028376,"longitude":-77.412075,"location":{"type":"Point","coordinates":[-77.412075,39.028376]}},{"name":"Axeda","category_code":"software","description":"HQ","address1":"25 Forbes Boulevard","address2":"Suite 3","zip_code":"02035","city":"Foxboro","state_code":"MA","country_code":"USA","latitude":42.023421,"longitude":-71.241522,"location":{"type":"Point","coordinates":[-71.241522,42.023421]}},{"name":"Comodo","category_code":"software","description":"Comodo Group, Inc.","address1":"525 Washington Blvd.,","address2":"","zip_code":"07310","city":"Jersey City","state_code":"NJ","country_code":"USA","latitude":40.726963,"longitude":-74.035805,"location":{"type":"Point","coordinates":[-74.035805,40.726963]}},{"name":"iScripts","category_code":"software","description":"Chicago Office","address1":"1020 Milwaukee ave","address2":"Suite 245","zip_code":"60015","city":"Deerfield","state_code":"IL","country_code":"USA","latitude":42.1652513,"longitude":-87.9215314,"location":{"type":"Point","coordinates":[-87.9215314,42.1652513]}},{"name":"ExpertHub","category_code":"web","description":"","address1":"7031 Koll Center Parkway","address2":"Suite 260","zip_code":"94566","city":"Pleasanton","state_code":"CA","country_code":"USA","latitude":37.6621228,"longitude":-121.9009329,"location":{"type":"Point","coordinates":[-121.9009329,37.6621228]}},{"name":"Concur Technologies","category_code":"software","description":"Headquarters","address1":"18400 NE Union Hill Rd","address2":"","zip_code":"98028","city":"Redmond","state_code":"WA","country_code":"USA","latitude":51.5200277,"longitude":-0.651155,"location":{"type":"Point","coordinates":[-0.651155,51.5200277]}},{"name":"inContact","category_code":"software","description":"Company Headquarters","address1":"7730 S. Union Park Ave.","address2":"Ste. 500","zip_code":"84047","city":"Midvale","state_code":"UT","country_code":"USA","latitude":40.6110797,"longitude":-111.853717,"location":{"type":"Point","coordinates":[-111.853717,40.6110797]}},{"name":"Major League Gaming","category_code":"games_video","description":"Corporate Headquarters","address1":"3 Park Avenue","address2":"32nd Floor","zip_code":"10016","city":"New York","state_code":"NY","country_code":"USA","latitude":40.752672,"longitude":-73.97593,"location":{"type":"Point","coordinates":[-73.97593,40.752672]}},{"name":"AppNeta","category_code":"software","description":"AppNeta","address1":"285 Summer Street","address2":"4th Floor","zip_code":"02127","city":"SOUTH BOSTON","state_code":"MA","country_code":"USA","latitude":42.318138,"longitude":-71.24756,"location":{"type":"Point","coordinates":[-71.24756,42.318138]}},{"name":"Crispy Gamer","category_code":"games_video","description":"","address1":"35 West 36th Street","address2":"Suite 4W","zip_code":"10018","city":"New York","state_code":"NY","country_code":"USA","latitude":40.750597,"longitude":-73.985273,"location":{"type":"Point","coordinates":[-73.985273,40.750597]}},{"name":"Wee Web","category_code":"web","description":"","address1":"","address2":"","zip_code":"","city":"New York","state_code":"NY","country_code":"USA","latitude":40.756054,"longitude":-73.986951,"location":{"type":"Point","coordinates":[-73.986951,40.756054]}},{"name":"Dyn","category_code":"network_hosting","description":"Main Office","address1":"150 Dow Street","address2":"Tower Two","zip_code":"03101","city":"Manchester","state_code":"NH","country_code":"USA","latitude":42.9959408,"longitude":-71.4634803,"location":{"type":"Point","coordinates":[-71.4634803,42.9959408]}},{"name":"PBMCube","category_code":"games_video","description":"Phoenix HQ","address1":"8111 N 19th Ave","address2":"Suite 1042","zip_code":"85021","city":"Phoenix","state_code":"AZ","country_code":"USA","latitude":33.554943,"longitude":-112.098592,"location":{"type":"Point","coordinates":[-112.098592,33.554943]}},{"name":"Tribridge","category_code":"software","description":"","address1":"4830 W. Kennedy Blvd.","address2":"Suite 890","zip_code":"33609","city":"Tampa","state_code":"FL","country_code":"USA","latitude":27.9447371,"longitude":-82.5265497,"location":{"type":"Point","coordinates":[-82.5265497,27.9447371]}},{"name":"Zeus","category_code":"software","description":"Zeus Technology, Inc","address1":"5201 Great America Parkway - Suite 320","address2":"","zip_code":"CA 95054","city":"Santa Clara","state_code":"CA","country_code":"USA","latitude":37.406217,"longitude":-121.976473,"location":{"type":"Point","coordinates":[-121.976473,37.406217]}},{"name":"RightNow Technologies","category_code":"software","description":"HQ","address1":"136 Enterprise Blvd.","address2":"P.O. Box 9300","zip_code":"59718","city":"Bozeman","state_code":"MT","country_code":"USA","latitude":45.679294,"longitude":-111.046231,"location":{"type":"Point","coordinates":[-111.046231,45.679294]}},{"name":"Nimsoft","category_code":"software","description":"Corporate Headquarters","address1":"275 Shoreline Drive","address2":"Suite 350","zip_code":"94065","city":"Redwood City","state_code":"CA","country_code":"USA","latitude":37.524851,"longitude":-122.257185,"location":{"type":"Point","coordinates":[-122.257185,37.524851]}},{"name":"Webfusion","category_code":"network_hosting","description":"Webfusion Solutions","address1":"3311 Porter Street NW","address2":"","zip_code":"20008","city":"Washington, DC","state_code":"DC","country_code":"USA","latitude":38.937505,"longitude":-77.065923,"location":{"type":"Point","coordinates":[-77.065923,38.937505]}},{"name":"Talent Alliance","category_code":"ecommerce","description":"Corporate HQ","address1":"500 N Capital of Texas Highway","address2":"Bldg 3, 2nd Floor","zip_code":"78746","city":"Austin","state_code":"TX","country_code":"USA","latitude":30.307955,"longitude":-97.828408,"location":{"type":"Point","coordinates":[-97.828408,30.307955]}},{"name":"Hostway","category_code":"network_hosting","description":"Hostway Chicago","address1":"100 North Riverside Plaza","address2":"","zip_code":"60606","city":"Chicago","state_code":"IL","country_code":"USA","latitude":41.8831954,"longitude":-87.638807,"location":{"type":"Point","coordinates":[-87.638807,41.8831954]}},{"name":"Kaseya","category_code":"software","description":"Kaseya International","address1":"2077 Gateway Pl","address2":"Ste 500","zip_code":"95110-1085","city":"San Jose","state_code":"CA","country_code":"USA","latitude":37.3721771,"longitude":-121.9250398,"location":{"type":"Point","coordinates":[-121.9250398,37.3721771]}},{"name":"Kaseya","category_code":"software","description":"Kaseya North America","address1":"160 Spear Street","address2":"Suite 1220","zip_code":"94105","city":"San Francisco","state_code":"CA","country_code":"USA","latitude":37.791575,"longitude":-122.39339,"location":{"type":"Point","coordinates":[-122.39339,37.791575]}},{"name":"Manatron","category_code":"software","description":"Corporate Headquarters","address1":"510 East Milham Ave.","address2":"","zip_code":"49002","city":"Portage","state_code":"MI","country_code":"USA","latitude":42.2301091,"longitude":-85.5846094,"location":{"type":"Point","coordinates":[-85.5846094,42.2301091]}},{"name":"SurveyMonkey","category_code":"software","description":"SurveyMonkey Portland","address1":"111 SW 5th Ave","address2":"Suite 1600","zip_code":"97204","city":"Portland","state_code":"OR","country_code":"USA","latitude":45.522105,"longitude":-122.676129,"location":{"type":"Point","coordinates":[-122.676129,45.522105]}},{"name":"SurveyMonkey","category_code":"software","description":"SurveyMonkey HQ","address1":"285 Hamilton Avenue","address2":"Suite 500","zip_code":"94301","city":"Palo Alto","state_code":"CA","country_code":"USA","latitude":37.453952,"longitude":-122.185141,"location":{"type":"Point","coordinates":[-122.185141,37.453952]}},{"name":"Noble Systems","category_code":"software","description":"Worldwide Headquarters","address1":"4151 Ashford Dunwoody Road","address2":"Suite 600","zip_code":"30319-1452","city":"Atlanta","state_code":"GA","country_code":"USA","latitude":33.9142506,"longitude":-84.336118,"location":{"type":"Point","coordinates":[-84.336118,33.9142506]}},{"name":"Bluewolf","category_code":"consulting","description":"Worldwide Headquarters","address1":"11 East 26th Street","address2":"21st Floor","zip_code":"10010","city":"New York","state_code":"NY","country_code":"USA","latitude":40.743616,"longitude":-73.9880796,"location":{"type":"Point","coordinates":[-73.9880796,40.743616]}},{"name":"Bluewolf","category_code":"consulting","description":"San Francisco Office","address1":"100 Spear Street","address2":"Suite 810","zip_code":"94105","city":"San Francisco","state_code":"CA","country_code":"USA","latitude":37.79215,"longitude":-122.394,"location":{"type":"Point","coordinates":[-122.394,37.79215]}},{"name":"AlphaPoint Technology","category_code":"software","description":"Corporate Office","address1":"6371 Business Blvd.","address2":"Suite 200","zip_code":"34240","city":"Sarasota","state_code":"FL","country_code":"USA","latitude":27.3858,"longitude":-82.423,"location":{"type":"Point","coordinates":[-82.423,27.3858]}},{"name":"Gist","category_code":"web","description":"","address1":"419 Occidental Ave S","address2":"Suite 608","zip_code":"98104","city":"Seattle","state_code":"WA","country_code":"USA","latitude":47.6008183,"longitude":-122.334117,"location":{"type":"Point","coordinates":[-122.334117,47.6008183]}},{"name":"Shareaholic","category_code":"web","description":"Shareaholic","address1":"109 Kingston Street","address2":"4th Floor","zip_code":"02111","city":"Boston","state_code":"MA","country_code":"USA","latitude":42.3647559,"longitude":-71.1032591,"location":{"type":"Point","coordinates":[-71.1032591,42.3647559]}},{"name":"Unitrends Software","category_code":"software","description":"Headquarters","address1":"7 Technology Circle, Suite 100","address2":"","zip_code":"29203","city":"Columbia","state_code":"SC","country_code":"USA","latitude":34.10057,"longitude":-80.963732,"location":{"type":"Point","coordinates":[-80.963732,34.10057]}},{"name":"Playdom","category_code":"games_video","description":"Palo Alto - Headquarters","address1":"395 Page Mill Road","address2":"2nd Floor","zip_code":"94306","city":"Palo Alto","state_code":"CA","country_code":"USA","latitude":37.393536,"longitude":-122.076747,"location":{"type":"Point","coordinates":[-122.076747,37.393536]}},{"name":"Social Solutions","category_code":"software","description":"Headquarters","address1":"2400 Boston Street","address2":"Suite 360","zip_code":"21224","city":"Baltimore","state_code":"MD","country_code":"USA","latitude":39.281734,"longitude":-76.581864,"location":{"type":"Point","coordinates":[-76.581864,39.281734]}},{"name":"Upland Software","category_code":"software","description":"HQ","address1":"25 First St","address2":"","zip_code":"02139","city":"Cambridge","state_code":"MA","country_code":"USA","latitude":42.3656123,"longitude":-71.0922022,"location":{"type":"Point","coordinates":[-71.0922022,42.3656123]}},{"name":"Blackbaud","category_code":"software","description":"Headquarters","address1":"2000 Daniel Island Drive","address2":"","zip_code":"29492","city":"Charleston","state_code":"SC","country_code":"USA","latitude":32.869699,"longitude":-79.91832,"location":{"type":"Point","coordinates":[-79.91832,32.869699]}},{"name":"Etix","category_code":"ecommerce","description":"Headquarters","address1":"909 Aviation Parkway","address2":"Suite 900","zip_code":"27560","city":"Morrisville","state_code":"NC","country_code":"USA","latitude":35.83565,"longitude":-78.8139,"location":{"type":"Point","coordinates":[-78.8139,35.83565]}},{"name":"InteliCloud","category_code":"network_hosting","description":"Corporate Office","address1":"895 Dove Street","address2":"3rd Floor","zip_code":"92660","city":"Newport Beach","state_code":"CA","country_code":"USA","latitude":33.658546,"longitude":-117.86595,"location":{"type":"Point","coordinates":[-117.86595,33.658546]}},{"name":"SunEdison","category_code":"cleantech","description":"Corporate Headquarters","address1":"12500 Baltimore Avenue","address2":"","zip_code":"20705","city":"Beltsville","state_code":"MD","country_code":"USA","latitude":39.0610803,"longitude":-76.8863954,"location":{"type":"Point","coordinates":[-76.8863954,39.0610803]}},{"name":"Prenova","category_code":"cleantech","description":"","address1":"400 Northridge Rd.,","address2":"Suite 1000","zip_code":"30350","city":"Atlanta","state_code":"GA","country_code":"USA","latitude":33.982967,"longitude":-84.346041,"location":{"type":"Point","coordinates":[-84.346041,33.982967]}},{"name":"Ipswitch","category_code":"software","description":"Corporate Headquarters","address1":"83 Hartwell Avenue","address2":"","zip_code":"02421","city":"Lexington","state_code":"MA","country_code":"USA","latitude":42.47218,"longitude":-71.262508,"location":{"type":"Point","coordinates":[-71.262508,42.47218]}},{"name":"Intuitive Surgical","category_code":"biotech","description":"U.S. Headquarters","address1":"1266 Kifer Road, Building 101","address2":"","zip_code":"94086","city":"Sunnyvale","state_code":"CA","country_code":"USA","latitude":37.3739742,"longitude":-121.9924118,"location":{"type":"Point","coordinates":[-121.9924118,37.3739742]}},{"name":"Viator","category_code":"web","description":"Viator, Inc.","address1":"657 Mission Street","address2":"5th Floor","zip_code":"94105","city":"San Francisco","state_code":"CA","country_code":"USA","latitude":37.78671,"longitude":-122.40084,"location":{"type":"Point","coordinates":[-122.40084,37.78671]}},{"name":"Recurrent Energy","category_code":"cleantech","description":"","address1":"300 California St.","address2":"7th Floor","zip_code":"94104","city":"San Francisco","state_code":"CA","country_code":"USA","latitude":37.805289,"longitude":-122.404448,"location":{"type":"Point","coordinates":[-122.404448,37.805289]}},{"name":"Aspen Surgical","category_code":"biotech","description":"","address1":"6945 Southbelt Dr. SE","address2":"","zip_code":"49316","city":"Caledonia","state_code":"MI","country_code":"USA","latitude":42.8373631,"longitude":-85.5345963,"location":{"type":"Point","coordinates":[-85.5345963,42.8373631]}},{"name":"Chantest","category_code":"biotech","description":"","address1":"14656 Neo Parkway","address2":"","zip_code":"44128","city":"Cleveland","state_code":"OH","country_code":"USA","latitude":41.429872,"longitude":-81.572089,"location":{"type":"Point","coordinates":[-81.572089,41.429872]}},{"name":"Cypress Bioscience","category_code":"biotech","description":"Corporate Offices","address1":"4350 Executive Drive","address2":"Suite 325","zip_code":"92121","city":"San Diego","state_code":"CA","country_code":"USA","latitude":32.875901,"longitude":-117.212163,"location":{"type":"Point","coordinates":[-117.212163,32.875901]}},{"name":"Millipore","category_code":"biotech","description":"Corporate Headquarters","address1":"290 Concord Road","address2":"","zip_code":"01821","city":"Billerica","state_code":"MA","country_code":"USA","latitude":42.537735,"longitude":-71.283427,"location":{"type":"Point","coordinates":[-71.283427,42.537735]}},{"name":"Dice Holdings","category_code":"web","description":"Dice Holdings","address1":"","address2":"","zip_code":"10016","city":"New York","state_code":"NY","country_code":"USA","latitude":40.74727,"longitude":-73.9800645,"location":{"type":"Point","coordinates":[-73.9800645,40.74727]}},{"name":"Alpine Biomed","category_code":"biotech","description":"","address1":"17800 Newhope St.","address2":"Suite B","zip_code":"92708","city":"Fountain Valley","state_code":"CA","country_code":"USA","latitude":33.704989,"longitude":-117.932592,"location":{"type":"Point","coordinates":[-117.932592,33.704989]}},{"name":"Terra-Gen Power","category_code":"cleantech","description":"New York City Office","address1":"565 Fifth Avenue","address2":"27th Floor","zip_code":"10017","city":"New York","state_code":"NY","country_code":"USA","latitude":40.7562295,"longitude":-73.9788753,"location":{"type":"Point","coordinates":[-73.9788753,40.7562295]}},{"name":"Real Goods Solar","category_code":"cleantech","description":"Real Goods Solar","address1":"13771 South Highway 101","address2":"","zip_code":"","city":"Hopland","state_code":"CA","country_code":"USA","latitude":38.872562,"longitude":-123.044572,"location":{"type":"Point","coordinates":[-123.044572,38.872562]}},{"name":"Real Goods Solar","category_code":"cleantech","description":"Real Goods\/Marin Solar","address1":"1163 East Francisco Blvd.","address2":"","zip_code":"94901","city":"San Rafael","state_code":"CA","country_code":"USA","latitude":37.9569059,"longitude":-122.5016533,"location":{"type":"Point","coordinates":[-122.5016533,37.9569059]}},{"name":"Real Goods Solar","category_code":"cleantech","description":"Real Goods\/Carlson Solar","address1":"41690 Corporate Center Drive","address2":"","zip_code":"92562","city":"Murrieta","state_code":"CA","country_code":"USA","latitude":33.5279274,"longitude":-117.1793502,"location":{"type":"Point","coordinates":[-117.1793502,33.5279274]}},{"name":"Real Goods Solar","category_code":"cleantech","description":"Real Goods Solar","address1":"833 So. Boulder Rd","address2":"","zip_code":"80027","city":"Louisville","state_code":"CO","country_code":"USA","latitude":39.988236,"longitude":-105.157455,"location":{"type":"Point","coordinates":[-105.157455,39.988236]}},{"name":"Real Goods Solar","category_code":"cleantech","description":"Real Goods","address1":"1115 Thompson Ave 31","address2":"","zip_code":"95062","city":"Santa Cruz","state_code":"CA","country_code":"USA","latitude":36.967958,"longitude":-121.971606,"location":{"type":"Point","coordinates":[-121.971606,36.967958]}},{"name":"GT Solar","category_code":"cleantech","description":"Worldwide Headquarters","address1":"243 Daniel Webster Highway","address2":"","zip_code":"03054","city":"Merrimack","state_code":"NH","country_code":"USA","latitude":42.830989,"longitude":-71.489876,"location":{"type":"Point","coordinates":[-71.489876,42.830989]}},{"name":"GT Solar","category_code":"cleantech","description":"Missoula, Montana","address1":"110 E. Broadway","address2":"Suite 400","zip_code":"59802","city":"Missoula","state_code":"MT","country_code":"USA","latitude":46.8719508,"longitude":-113.9934266,"location":{"type":"Point","coordinates":[-113.9934266,46.8719508]}},{"name":"GALE CENGAGE Learning","category_code":"ecommerce","description":"","address1":"27500 Drake Road","address2":"","zip_code":"48331","city":"Farmington Hills","state_code":"MI","country_code":"USA","latitude":42.4963371,"longitude":-83.3976315,"location":{"type":"Point","coordinates":[-83.3976315,42.4963371]}},{"name":"BIA Financial Network","category_code":"consulting","description":"","address1":"15120 Enterprise Court","address2":"","zip_code":"20151","city":"Chantilly","state_code":"VA","country_code":"USA","latitude":38.9068793,"longitude":-77.469494,"location":{"type":"Point","coordinates":[-77.469494,38.9068793]}},{"name":"Applied Research Associates","category_code":"consulting","description":"","address1":"4300 San Mateo Blvd. NE","address2":"Suite A-220","zip_code":"87110","city":"Albuquerque","state_code":"NM","country_code":"USA","latitude":35.129688,"longitude":-106.585701,"location":{"type":"Point","coordinates":[-106.585701,35.129688]}},{"name":"Itron","category_code":"cleantech","description":"Headquarters","address1":"2111 N Molter Road","address2":"","zip_code":"99019","city":"Liberty Lake","state_code":"WA","country_code":"USA","latitude":47.674933,"longitude":-117.091093,"location":{"type":"Point","coordinates":[-117.091093,47.674933]}},{"name":"Perficient","category_code":"consulting","description":"Headquarters","address1":"1120 S Capital of Texas Hwy","address2":"Bldg. 3, Ste 220","zip_code":"78746","city":"Austin","state_code":"TX","country_code":"USA","latitude":30.28113,"longitude":-97.824782,"location":{"type":"Point","coordinates":[-97.824782,30.28113]}},{"name":"Stericycle","category_code":"biotech","description":"Headquarters","address1":"28161 N. Keith Dr.","address2":"","zip_code":"60045","city":"Lake Forest","state_code":"IL","country_code":"USA","latitude":42.271319,"longitude":-87.9031788,"location":{"type":"Point","coordinates":[-87.9031788,42.271319]}},{"name":"Quintiles","category_code":"biotech","description":"","address1":"1701 Directors Boulevard Suite 730","address2":"","zip_code":"78744","city":"Austin","state_code":"TX","country_code":"USA","latitude":30.213039,"longitude":-97.751754,"location":{"type":"Point","coordinates":[-97.751754,30.213039]}},{"name":"Clovis Oncology","category_code":"biotech","description":"HQ","address1":"2525 28th Street","address2":"Suite 100","zip_code":"80301","city":"Boulder","state_code":"CO","country_code":"USA","latitude":40.026,"longitude":-105.259041,"location":{"type":"Point","coordinates":[-105.259041,40.026]}},{"name":"Trimble","category_code":"network_hosting","description":"Headquarters","address1":"935 Stewart Drive","address2":"","zip_code":"94085","city":"Sunnyvale","state_code":"CA","country_code":"USA","latitude":37.3839361,"longitude":-122.0057601,"location":{"type":"Point","coordinates":[-122.0057601,37.3839361]}},{"name":"EnerNOC","category_code":"cleantech","description":"Headquarters","address1":"75 Federal Street","address2":"Suite 300","zip_code":"02110","city":"Boston","state_code":"MA","country_code":"USA","latitude":42.355246,"longitude":-71.056915,"location":{"type":"Point","coordinates":[-71.056915,42.355246]}},{"name":"YCD Multimedia","category_code":"software","description":"","address1":"104 West 27th Street","address2":"7th Floor","zip_code":"NY 10001","city":"New York","state_code":"NY","country_code":"USA","latitude":40.745454,"longitude":-73.991674,"location":{"type":"Point","coordinates":[-73.991674,40.745454]}},{"name":"INRIX","category_code":"software","description":"Headquarters","address1":"10210 NE Points Drive","address2":"","zip_code":"98033","city":"Kirkland","state_code":"WA","country_code":"USA","latitude":47.6434969,"longitude":-122.2033998,"location":{"type":"Point","coordinates":[-122.2033998,47.6434969]}},{"name":"Accellos","category_code":"software","description":"","address1":"90 South Cascade Avenue","address2":"Suite 1200","zip_code":"80903","city":"Colorado Springs","state_code":"CO","country_code":"USA","latitude":38.833716,"longitude":-104.826256,"location":{"type":"Point","coordinates":[-104.826256,38.833716]}},{"name":"LabCorp","category_code":"biotech","description":"Headquarters","address1":"358 S. Main St","address2":"","zip_code":"27215","city":"Burlington","state_code":"NC","country_code":"USA","latitude":36.0934631,"longitude":-79.4372853,"location":{"type":"Point","coordinates":[-79.4372853,36.0934631]}},{"name":"NeoPhotonics","category_code":"network_hosting","description":"","address1":"2911 Zanker Road","address2":"","zip_code":"95134","city":"San Jose","state_code":"CA","country_code":"USA","latitude":37.3961981,"longitude":-121.9301666,"location":{"type":"Point","coordinates":[-121.9301666,37.3961981]}},{"name":"CrowdGather","category_code":"web","description":"HQ","address1":"20300 Ventura Blvd. Suite 330","address2":"","zip_code":"91364","city":"Woodland Hills","state_code":"CA","country_code":"USA","latitude":34.168955,"longitude":-118.575293,"location":{"type":"Point","coordinates":[-118.575293,34.168955]}},{"name":"St Lawrence Energy Corp","category_code":"cleantech","description":"Corporate Headquarters","address1":"2370 Watson Ct.","address2":"Suite 110","zip_code":"94303","city":"Palo Alto","state_code":"CA","country_code":"USA","latitude":37.447969,"longitude":-122.119417,"location":{"type":"Point","coordinates":[-122.119417,37.447969]}},{"name":"Utz Technologies","category_code":"cleantech","description":"Headquarters","address1":"101 Industrial","address2":"","zip_code":"07012","city":"East Clifton","state_code":"NJ","country_code":"USA","latitude":40.8457958,"longitude":-74.154536,"location":{"type":"Point","coordinates":[-74.154536,40.8457958]}},{"name":"Levementum","category_code":"consulting","description":"Headquarters","address1":"88 S. San Marcos Place","address2":"","zip_code":"85225","city":"Chandler","state_code":"AZ","country_code":"USA","latitude":33.3025147,"longitude":-111.8420554,"location":{"type":"Point","coordinates":[-111.8420554,33.3025147]}},{"name":"Lumension","category_code":"software","description":"Corporate Headquarters","address1":"8660 East Hartford Drive","address2":"Suite 300","zip_code":"85255","city":"Scottsdale","state_code":"AZ","country_code":"USA","latitude":33.630722,"longitude":-111.912147,"location":{"type":"Point","coordinates":[-111.912147,33.630722]}},{"name":"AECOM Technology","category_code":"consulting","description":"Headquarters","address1":"555 South Flower Street","address2":"Suite 3700","zip_code":"90071-2300","city":"Los Angeles","state_code":"CA","country_code":"USA","latitude":34.0507962,"longitude":-118.2568615,"location":{"type":"Point","coordinates":[-118.2568615,34.0507962]}},{"name":"CherryRoad Technologies","category_code":"consulting","description":"Headquarters","address1":"199 Cherry Hill Road","address2":"","zip_code":"07054","city":"Parsippany","state_code":"NJ","country_code":"USA","latitude":40.871101,"longitude":-74.437895,"location":{"type":"Point","coordinates":[-74.437895,40.871101]}},{"name":"Endicott Interconnect Technologies","category_code":"software","description":"","address1":"","address2":"","zip_code":"13760","city":"Endicott","state_code":"NY","country_code":"USA","latitude":42.098074,"longitude":-76.065494,"location":{"type":"Point","coordinates":[-76.065494,42.098074]}},{"name":"SunGard","category_code":"software","description":"Corporate Headquarters","address1":"680 East Swedesford Rd","address2":"","zip_code":"19087","city":"Wayne","state_code":"PA","country_code":"USA","latitude":40.075096,"longitude":-75.42402,"location":{"type":"Point","coordinates":[-75.42402,40.075096]}},{"name":"QLogic","category_code":"network_hosting","description":"Headquarters","address1":"26650 Aliso Viejo Parkway","address2":"","zip_code":"92656","city":"Aliso Viejo","state_code":"CA","country_code":"USA","latitude":33.5761414,"longitude":-117.7306611,"location":{"type":"Point","coordinates":[-117.7306611,33.5761414]}},{"name":"Data Systems International","category_code":"software","description":"Corporate Headquarters","address1":"1201 Walnut Street","address2":"Suite 1100","zip_code":"64106","city":"Kansas City","state_code":"MO","country_code":"USA","latitude":38.928704,"longitude":-94.676301,"location":{"type":"Point","coordinates":[-94.676301,38.928704]}},{"name":"Clean Harbors","category_code":"cleantech","description":"Headquarters","address1":"42 Longwater Drive","address2":"","zip_code":"02061-9149","city":"Norwell","state_code":"MA","country_code":"USA","latitude":42.160221,"longitude":-70.88265,"location":{"type":"Point","coordinates":[-70.88265,42.160221]}},{"name":"Premier Power","category_code":"cleantech","description":"Headquarters","address1":"4961 Windplay Drive","address2":"Suite 100","zip_code":"95762","city":"El Dorado Hills","state_code":"CA","country_code":"USA","latitude":38.638777,"longitude":-121.071903,"location":{"type":"Point","coordinates":[-121.071903,38.638777]}},{"name":"Haemonetics","category_code":"biotech","description":"Haemonetics Corp.","address1":"400 Wood Rd.","address2":"","zip_code":"02184","city":"Braintree","state_code":"MA","country_code":"USA","latitude":42.2165069,"longitude":-71.04227,"location":{"type":"Point","coordinates":[-71.04227,42.2165069]}},{"name":"MEDecision","category_code":"software","description":"","address1":"601 Lee Road","address2":"Chesterbrook Corporate Center","zip_code":"19087","city":"Wayne","state_code":"PA","country_code":"USA","latitude":40.07014,"longitude":-75.456783,"location":{"type":"Point","coordinates":[-75.456783,40.07014]}},{"name":"Affiliated Computer Services","category_code":"consulting","description":"Corporate Headquarters","address1":"2828 North Haskell","address2":"","zip_code":"75204","city":"Dallas","state_code":"TX","country_code":"USA","latitude":32.781078,"longitude":-96.797111,"location":{"type":"Point","coordinates":[-96.797111,32.781078]}},{"name":"Digi International","category_code":"network_hosting","description":"Corporate Headquarters","address1":"11001 Bren Road East","address2":"","zip_code":"55343","city":"Minnetonka","state_code":"MN","country_code":"USA","latitude":44.898635,"longitude":-93.415905,"location":{"type":"Point","coordinates":[-93.415905,44.898635]}},{"name":"Phase Forward","category_code":"software","description":"Phase Forward Inc.","address1":"77 Fourth Avenue","address2":"","zip_code":"02451","city":"Waltham","state_code":"MA","country_code":"USA","latitude":42.392966,"longitude":-71.259334,"location":{"type":"Point","coordinates":[-71.259334,42.392966]}},{"name":"Photonera","category_code":"network_hosting","description":"Headquarters","address1":"830 Stewart Drive","address2":"Suite 257","zip_code":"94085","city":"Sunnyvale","state_code":"CA","country_code":"USA","latitude":37.383444,"longitude":-122.009405,"location":{"type":"Point","coordinates":[-122.009405,37.383444]}},{"name":"Antenna Software","category_code":"software","description":"Headquarters","address1":"","address2":"","zip_code":"","city":"Jersey City","state_code":"NJ","country_code":"USA","latitude":40.720883,"longitude":-74.081365,"location":{"type":"Point","coordinates":[-74.081365,40.720883]}},{"name":"Expesite","category_code":"software","description":"Headquarters","address1":"278 N. 5th St","address2":"","zip_code":"43215","city":"Columbus","state_code":"OH","country_code":"USA","latitude":39.962208,"longitude":-83.000676,"location":{"type":"Point","coordinates":[-83.000676,39.962208]}},{"name":"High Gear Media","category_code":"web","description":"","address1":"830 Menlo Ave","address2":"Suite 201","zip_code":"94025","city":"Menlo Park","state_code":"CA","country_code":"USA","latitude":37.445335,"longitude":-122.15833,"location":{"type":"Point","coordinates":[-122.15833,37.445335]}},{"name":"SureHarvest","category_code":"software","description":"Corporate Office","address1":"2901 Park Ave. Suite A2","address2":"","zip_code":"95073","city":"Soquel","state_code":"CA","country_code":"USA","latitude":36.987271,"longitude":-121.936806,"location":{"type":"Point","coordinates":[-121.936806,36.987271]}},{"name":"Mortgagebot","category_code":"software","description":"","address1":"1000 W. Donges Bay Rd Suite 200","address2":"","zip_code":"53092","city":"Mequon","state_code":"WI","country_code":"USA","latitude":43.2066859,"longitude":-87.9218939,"location":{"type":"Point","coordinates":[-87.9218939,43.2066859]}},{"name":"Tyler Technologies","category_code":"software","description":"Headquarters","address1":"5949 Sherry Lane","address2":"Suite 1400","zip_code":"75225","city":"Dallas","state_code":"TX","country_code":"USA","latitude":40.739705,"longitude":-73.638358,"location":{"type":"Point","coordinates":[-73.638358,40.739705]}},{"name":"Answers Systems","category_code":"software","description":"Corporate Office","address1":"4029 Tampa Road","address2":"","zip_code":"34677","city":"Oldsmar","state_code":"FL","country_code":"USA","latitude":28.036972,"longitude":-82.653011,"location":{"type":"Point","coordinates":[-82.653011,28.036972]}},{"name":"SpringSoft","category_code":"software","description":"USA Headquarters","address1":"2025 Gateway Place, Suite 400","address2":"","zip_code":"95110","city":"San Jose","state_code":"CA","country_code":"USA","latitude":37.37027,"longitude":-121.924053,"location":{"type":"Point","coordinates":[-121.924053,37.37027]}},{"name":"Finsbury Solutions","category_code":"software","description":"US Office","address1":"545 8th Avenue, Suite 401","address2":"","zip_code":"10018","city":"New York","state_code":"NY","country_code":"USA","latitude":40.75451,"longitude":-73.992193,"location":{"type":"Point","coordinates":[-73.992193,40.75451]}},{"name":"Amcom Software","category_code":"software","description":"Corporate Headquarters","address1":"10400 Yellow Circle Drive","address2":"","zip_code":"55343","city":"Eden Prairie","state_code":"MN","country_code":"USA","latitude":44.894004,"longitude":-93.414845,"location":{"type":"Point","coordinates":[-93.414845,44.894004]}},{"name":"HighJump Software","category_code":"software","description":"Headquarters","address1":"5600 West 83rd Street","address2":"Suite 600, 8200 Tower","zip_code":"55347","city":"Minneapolis","state_code":"MN","country_code":"USA","latitude":44.885076,"longitude":-93.415682,"location":{"type":"Point","coordinates":[-93.415682,44.885076]}},{"name":"Brittenford Systems","category_code":"software","description":"HQ","address1":"12359 Sunrise Valley Drive","address2":"Suite 130","zip_code":"20191","city":"Reston","state_code":"VA","country_code":"USA","latitude":38.9507479,"longitude":-77.3726997,"location":{"type":"Point","coordinates":[-77.3726997,38.9507479]}},{"name":"Infinite Software Corporation","category_code":"consulting","description":"DALLAS","address1":"4925 Greenville Avenue","address2":"Suite 200","zip_code":"75206","city":"Dallas","state_code":"TX","country_code":"USA","latitude":32.846517,"longitude":-96.770812,"location":{"type":"Point","coordinates":[-96.770812,32.846517]}},{"name":"Paragon Development Systems","category_code":"software","description":"Headquarters","address1":"1823 Executive Drive","address2":"P.O. Box 128","zip_code":"53066","city":"Oconomowoc","state_code":"WI","country_code":"USA","latitude":43.073308,"longitude":-88.474806,"location":{"type":"Point","coordinates":[-88.474806,43.073308]}},{"name":"Compliance 360","category_code":"software","description":"Corporate Headquarters","address1":"1185 Sanctuary Parkway","address2":"Suite 250","zip_code":"30009","city":"Alpharetta","state_code":"GA","country_code":"USA","latitude":34.045551,"longitude":-84.311385,"location":{"type":"Point","coordinates":[-84.311385,34.045551]}},{"name":"CrimeCog Technologies","category_code":"software","description":"","address1":"24 Frank Lloyd Wright Drive","address2":"P.O. Box 424 Suite D 2200","zip_code":"48106","city":"Ann Arbor","state_code":"MI","country_code":"USA","latitude":42.316007,"longitude":-83.683501,"location":{"type":"Point","coordinates":[-83.683501,42.316007]}},{"name":"Oxford Consulting","category_code":"consulting","description":"HQ","address1":"385 County Line Road West","address2":"Suite 210","zip_code":"43082","city":"Westerville","state_code":"OH","country_code":"USA","latitude":40.1368917,"longitude":-82.9431104,"location":{"type":"Point","coordinates":[-82.9431104,40.1368917]}},{"name":"Petris","category_code":"software","description":"Headquarters","address1":"1900 St. James Place, Suite 700","address2":"","zip_code":"77056","city":"Houston","state_code":"TX","country_code":"USA","latitude":29.746483,"longitude":-95.473774,"location":{"type":"Point","coordinates":[-95.473774,29.746483]}},{"name":"AbleNet","category_code":"software","description":"","address1":"2808 Fairview Avenue","address2":"","zip_code":"55113","city":"North - Roseville","state_code":"MN","country_code":"USA","latitude":45.0258237,"longitude":-93.1772495,"location":{"type":"Point","coordinates":[-93.1772495,45.0258237]}},{"name":"Aleri","category_code":"software","description":"New York","address1":"75 Rockefeller Plaza, 18th Floor","address2":"","zip_code":"10019","city":"New York","state_code":"NY","country_code":"USA","latitude":40.7592189,"longitude":-73.9783534,"location":{"type":"Point","coordinates":[-73.9783534,40.7592189]}},{"name":"Aleri","category_code":"software","description":"Silicon Valley","address1":"82 Pioneer Way","address2":"","zip_code":"94047","city":"Mountain View","state_code":"CA","country_code":"USA","latitude":37.389378,"longitude":-122.06709,"location":{"type":"Point","coordinates":[-122.06709,37.389378]}},{"name":"Widearea Systems","category_code":"software","description":"","address1":"201A Broadway Street","address2":"","zip_code":"21701","city":"Frederick","state_code":"MD","country_code":"USA","latitude":39.4107887,"longitude":-77.412657,"location":{"type":"Point","coordinates":[-77.412657,39.4107887]}},{"name":"Digital Interactive","category_code":"games_video","description":"","address1":"444 West Ocean Boulevard","address2":"Suite 1070","zip_code":"90802","city":"Long Beach","state_code":"CA","country_code":"USA","latitude":33.766701,"longitude":-118.197677,"location":{"type":"Point","coordinates":[-118.197677,33.766701]}},{"name":"Headstrong","category_code":"consulting","description":"","address1":"200 West Adams","address2":"Suite 1800","zip_code":"60606","city":"Chicago","state_code":"IL","country_code":"USA","latitude":41.879733,"longitude":-87.63449,"location":{"type":"Point","coordinates":[-87.63449,41.879733]}},{"name":"Force10 Networks","category_code":"ecommerce","description":"Corporate Headquarters","address1":"350 Holger Way","address2":"","zip_code":"95134-1362","city":"San Jose","state_code":"CA","country_code":"USA","latitude":37.418636,"longitude":-121.944828,"location":{"type":"Point","coordinates":[-121.944828,37.418636]}},{"name":"Three Pillar Software","category_code":"consulting","description":"","address1":"4000 Legato Road","address2":"Suite 1100","zip_code":"22033","city":"Fairfax","state_code":"VA","country_code":"USA","latitude":38.865785,"longitude":-77.364794,"location":{"type":"Point","coordinates":[-77.364794,38.865785]}},{"name":"Bluestone Energy","category_code":"cleantech","description":"","address1":"136 Longwater Drive","address2":"Suite 103","zip_code":"02061","city":"Norwell","state_code":"MA","country_code":"USA","latitude":42.156005,"longitude":-70.878024,"location":{"type":"Point","coordinates":[-70.878024,42.156005]}},{"name":"Educational Options","category_code":"web","description":"","address1":"3440 N. Fairfax Drive","address2":"","zip_code":"22201","city":"Arlington","state_code":"VA","country_code":"USA","latitude":38.883759,"longitude":-77.101703,"location":{"type":"Point","coordinates":[-77.101703,38.883759]}},{"name":"Mind Drivers","category_code":"ecommerce","description":"","address1":"The Mill","address2":"381 Brinton Lake Road","zip_code":"19373","city":"Thornton","state_code":"PA","country_code":"USA","latitude":39.896632,"longitude":-75.531072,"location":{"type":"Point","coordinates":[-75.531072,39.896632]}},{"name":"TeachScape","category_code":"software","description":"","address1":"71 Stevenson St.","address2":"5th Floor","zip_code":"94105","city":"San Francisco","state_code":"CA","country_code":"USA","latitude":37.7869047,"longitude":-122.4043924,"location":{"type":"Point","coordinates":[-122.4043924,37.7869047]}},{"name":"PopCap Games","category_code":"games_video","description":"","address1":"2401 4th Ave","address2":"Suite 810","zip_code":"98121","city":"Seattle","state_code":"WA","country_code":"USA","latitude":47.6161693,"longitude":-122.3451897,"location":{"type":"Point","coordinates":[-122.3451897,47.6161693]}},{"name":"Calypso Technology","category_code":"software","description":"","address1":"595 Market Street","address2":"Suite 1800","zip_code":"94105","city":"San Francisco","state_code":"CA","country_code":"USA","latitude":37.789318,"longitude":-122.400655,"location":{"type":"Point","coordinates":[-122.400655,37.789318]}},{"name":"Testplant","category_code":"software","description":"TestPlant","address1":"3000 Pearl Street","address2":"","zip_code":"80301","city":"Boulder","state_code":"CO","country_code":"USA","latitude":40.0230047,"longitude":-105.2532841,"location":{"type":"Point","coordinates":[-105.2532841,40.0230047]}},{"name":"FTI Consulting","category_code":"consulting","description":"","address1":"500 E. Pratt Street","address2":"Suite 1400","zip_code":"21202","city":"Baltimore","state_code":"MD","country_code":"USA","latitude":39.2866734,"longitude":-76.6086855,"location":{"type":"Point","coordinates":[-76.6086855,39.2866734]}},{"name":"Axway","category_code":"software","description":"Corporate Headquarters","address1":"6811 E. Mayo Blvd.,","address2":"Suite 400","zip_code":"85054","city":"Phoenix","state_code":"AZ","country_code":"USA","latitude":33.6552471,"longitude":-111.9353417,"location":{"type":"Point","coordinates":[-111.9353417,33.6552471]}},{"name":"Sitestar","category_code":"network_hosting","description":"","address1":"7109 Timberlake Road","address2":"","zip_code":"24502","city":"Lynchburg","state_code":"VA","country_code":"USA","latitude":37.362749,"longitude":-79.210057,"location":{"type":"Point","coordinates":[-79.210057,37.362749]}},{"name":"Aspera","category_code":"software","description":"Headquarters","address1":"Suite E, 5900 Hollis Street","address2":"","zip_code":"94608","city":"Emeryville","state_code":"CA","country_code":"USA","latitude":37.8416738,"longitude":-122.289666,"location":{"type":"Point","coordinates":[-122.289666,37.8416738]}},{"name":"Continuity Engine","category_code":"software","description":"HQ","address1":"150 Munson Street, 25 Science Park at Yale","address2":"","zip_code":"06511","city":"New Haven","state_code":"CT","country_code":"USA","latitude":41.3279176,"longitude":-73.2435522,"location":{"type":"Point","coordinates":[-73.2435522,41.3279176]}},{"name":"Sword","category_code":"software","description":"","address1":"17 State Street","address2":"26th Floor","zip_code":"10004","city":"New York","state_code":"NY","country_code":"USA","latitude":40.7029757,"longitude":-74.0143524,"location":{"type":"Point","coordinates":[-74.0143524,40.7029757]}},{"name":"Trace Systems","category_code":"consulting","description":"","address1":"1600 Tysons Boulevard","address2":"Suite 450","zip_code":"22102","city":"McLean","state_code":"VA","country_code":"USA","latitude":38.9255186,"longitude":-77.2276473,"location":{"type":"Point","coordinates":[-77.2276473,38.9255186]}},{"name":"MSC Software","category_code":"software","description":"","address1":"2 MaCarthur Place","address2":"","zip_code":"92707","city":"Santa Ana","state_code":"CA","country_code":"USA","latitude":33.70263,"longitude":-117.865071,"location":{"type":"Point","coordinates":[-117.865071,33.70263]}},{"name":"INX","category_code":"network_hosting","description":"","address1":"6401 South West Freeway","address2":"","zip_code":"77074","city":"Houston","state_code":"TX","country_code":"USA","latitude":29.719906,"longitude":-95.4950163,"location":{"type":"Point","coordinates":[-95.4950163,29.719906]}},{"name":"optionsXpress","category_code":"software","description":"","address1":"311 West Monroe Street","address2":"Suite 1000","zip_code":"60606","city":"Chicago","state_code":"IL","country_code":"USA","latitude":41.8806258,"longitude":-87.6356066,"location":{"type":"Point","coordinates":[-87.6356066,41.8806258]}},{"name":"Embarcadero Technologies","category_code":"software","description":"Corporate Headquarters","address1":"100 California Street","address2":"12th Floor","zip_code":"94111","city":"San Francisco","state_code":"CA","country_code":"USA","latitude":37.793949,"longitude":-122.398062,"location":{"type":"Point","coordinates":[-122.398062,37.793949]}},{"name":"ANTs Software","category_code":"software","description":"Corporate Address","address1":"4514 Chamblee Dunwoody Rd.","address2":"Suite 188","zip_code":"30338","city":"Dunwoody","state_code":"GA","country_code":"USA","latitude":37.590056,"longitude":-122.347654,"location":{"type":"Point","coordinates":[-122.347654,37.590056]}},{"name":"Interactive Data","category_code":"software","description":"","address1":"32 Crosby Drive","address2":"","zip_code":"01730","city":"Bedford","state_code":"MA","country_code":"USA","latitude":42.509865,"longitude":-71.247192,"location":{"type":"Point","coordinates":[-71.247192,42.509865]}},{"name":"Axon Solutions","category_code":"software","description":"","address1":"15 Exchange Place","address2":"Suite 730","zip_code":"07302","city":"Jersey City","state_code":"NJ","country_code":"USA","latitude":40.715887,"longitude":-74.033251,"location":{"type":"Point","coordinates":[-74.033251,40.715887]}},{"name":"QSGI","category_code":"software","description":"","address1":"400 Royal Palm Way","address2":"","zip_code":"33480","city":"Palm Beach","state_code":"FL","country_code":"USA","latitude":26.705331,"longitude":-80.041395,"location":{"type":"Point","coordinates":[-80.041395,26.705331]}},{"name":"EnteGreat Solutions","category_code":"software","description":"","address1":"","address2":"","zip_code":"","city":"Birmingham","state_code":"AL","country_code":"USA","latitude":33.518885,"longitude":-86.816068,"location":{"type":"Point","coordinates":[-86.816068,33.518885]}}]