[{"name":"Mortgagebot","city":"Mequon","state_code":"WI","location":{"type":"Point","coordinates":[-87.9218939,43.2066859]},"f_oldcomp":0,"near_airport":1,"near_startup":4,"near_design":3},{"name":"Rockwell Automation","city":"Milwaukee","state_code":"WI","location":{"type":"Point","coordinates":[-87.91334,43.018237]},"f_oldcomp":0,"near_airport":2,"near_startup":4,"near_design":3},{"name":"SAS","city":"Cary","state_code":"NC","location":{"type":"Point","coordinates":[-78.765676,35.8293514]},"f_oldcomp":1,"near_airport":1,"near_startup":3,"near_design":3},{"name":"Emagic","city":"Milwaukee","state_code":"WI","location":{"type":"Point","coordinates":[-87.909151,43.042848]},"f_oldcomp":1,"near_airport":2,"near_startup":4,"near_design":3},{"name":"GMA Grading","city":"Odessa","state_code":"FL","location":{"type":"Point","coordinates":[-82.568494,28.172468]},"f_oldcomp":1,"near_airport":1,"near_startup":2,"near_design":2},{"name":"Teen Togs","city":"Seattle","state_code":"WA","location":{"type":"Point","coordinates":[-122.3045438,47.5405059]},"f_oldcomp":1,"near_airport":1,"near_startup":5,"near_design":9},{"name":"iScripts","city":"Deerfield","state_code":"IL","location":{"type":"Point","coordinates":[-87.9215314,42.1652513]},"f_oldcomp":1,"near_airport":2,"near_startup":4,"near_design":3},{"name":"ScanDigital","city":"Torrance","state_code":"CA","location":{"type":"Point","coordinates":[-118.41747,33.918151]},"f_oldcomp":1,"near_airport":1,"near_startup":7,"near_design":19},{"name":"Streamy","city":"Manhattan Beach","state_code":"CA","location":{"type":"Point","coordinates":[-118.418098,33.901121]},"f_oldcomp":1,"near_airport":1,"near_startup":7,"near_design":15},{"name":"OffsetX","city":"Marietta","state_code":"GA","location":{"type":"Point","coordinates":[-84.461877,34.037272]},"f_oldcomp":1,"near_airport":1,"near_startup":2,"near_design":2},{"name":"StellarSurvey","city":"Milwaukee","state_code":"WI","location":{"type":"Point","coordinates":[-87.895093,43.097697]},"f_oldcomp":1,"near_airport":2,"near_startup":4,"near_design":3},{"name":"ShockWatch","city":"Dallas","state_code":"TX","location":{"type":"Point","coordinates":[-96.870924,32.818985]},"f_oldcomp":1,"near_airport":1,"near_startup":2,"near_design":3},{"name":"Vocera Communications","city":"San Jose","state_code":"CA","location":{"type":"Point","coordinates":[-121.911101,37.3190224]},"f_oldcomp":2,"near_airport":1,"near_startup":16,"near_design":23},{"name":"LenderFlex","city":"Atlanta","state_code":"GA","location":{"type":"Point","coordinates":[-84.2995,33.75]},"f_oldcomp":2,"near_airport":1,"near_startup":2,"near_design":5},{"name":"Nibea","city":"Oakland","state_code":"CA","location":{"type":"Point","coordinates":[-122.214897,37.772323]},"f_oldcomp":2,"near_airport":1,"near_startup":27,"near_design":3},{"name":"Datachamps","city":"Phoenix","state_code":"AZ","location":{"type":"Point","coordinates":[-111.9641728,33.4962205]},"f_oldcomp":2,"near_airport":1,"near_startup":2,"near_design":2},{"name":"Quova","city":"Marietta","state_code":"GA","location":{"type":"Point","coordinates":[-84.426962,34.026926]},"f_oldcomp":2,"near_airport":1,"near_startup":2,"near_design":5},{"name":"SpiderOak","city":"Northbrook","state_code":"IL","location":{"type":"Point","coordinates":[-87.862305,42.142261]},"f_oldcomp":2,"near_airport":1,"near_startup":4,"near_design":3},{"name":"Easy Autos","city":"Atlanta","state_code":"GA","location":{"type":"Point","coordinates":[-84.4455862,33.8631903]},"f_oldcomp":2,"near_airport":1,"near_startup":2,"near_design":3},{"name":"TennisPoint","city":"Marietta","state_code":"GA","location":{"type":"Point","coordinates":[-84.444006,33.939116]},"f_oldcomp":2,"near_airport":1,"near_startup":2,"near_design":3},{"name":"Handipoints","city":"Oakland","state_code":"CA","location":{"type":"Point","coordinates":[-122.214897,37.772323]},"f_oldcomp":2,"near_airport":1,"near_startup":27,"near_design":3},{"name":"YellowBot","city":"Burbank","state_code":"CA","location":{"type":"Point","coordinates":[-118.3489963,34.1872813]},"f_oldcomp":2,"near_airport":1,"near_startup":7,"near_design":16},{"name":"Solfo","city":"Burbank","state_code":"CA","location":{"type":"Point","coordinates":[-118.3489963,34.1872813]},"f_oldcomp":2,"near_airport":1,"near_startup":7,"near_design":16},{"name":"PINC Solutions","city":"Alameda","state_code":"CA","location":{"type":"Point","coordinates":[-122.243783,37.726339]},"f_oldcomp":2,"near_airport":1,"near_startup":26,"near_design":4},{"name":"Tang Wind Energy","city":"Dallas","state_code":"TX","location":{"type":"Point","coordinates":[-96.840091,32.749238]},"f_oldcomp":2,"near_airport":1,"near_startup":2,"near_design":4},{"name":"Singulex","city":"Alameda","state_code":"CA","location":{"type":"Point","coordinates":[-122.240937,37.723803]},"f_oldcomp":2,"near_airport":1,"near_startup":26,"near_design":4},{"name":"Stericycle","city":"Lake Forest","state_code":"IL","location":{"type":"Point","coordinates":[-87.9031788,42.271319]},"f_oldcomp":2,"near_airport":2,"near_startup":4,"near_design":3},{"name":"Shopseen","city":"San Francisco","state_code":"CA","location":{"type":"Point","coordinates":[-122.214897,37.772323]},"f_oldcomp":2,"near_airport":1,"near_startup":27,"near_design":3},{"name":"Brite Green Janitorial Services","city":"Decatur","state_code":"GA","location":{"type":"Point","coordinates":[-84.2965,33.7749]},"f_oldcomp":2,"near_airport":1,"near_startup":2,"near_design":5},{"name":"Zebra Technologies","city":"Lincolnshire","state_code":"IL","location":{"type":"Point","coordinates":[-87.9024928,42.2003645]},"f_oldcomp":2,"near_airport":2,"near_startup":4,"near_design":3},{"name":"LivePerson","city":"Atlanta","state_code":"GA","location":{"type":"Point","coordinates":[-84.4709443,33.8656817]},"f_oldcomp":3,"near_airport":1,"near_startup":2,"near_design":2},{"name":"XDx","city":"Brisbane","state_code":"CA","location":{"type":"Point","coordinates":[-122.4040269,37.691226]},"f_oldcomp":3,"near_airport":1,"near_startup":18,"near_design":51},{"name":"xlr8 Technologies","city":"Cary","state_code":"NC","location":{"type":"Point","coordinates":[-78.7809469,35.766855]},"f_oldcomp":3,"near_airport":1,"near_startup":3,"near_design":2},{"name":"Lookfab","city":"Seattle","state_code":"WA","location":{"type":"Point","coordinates":[-122.294485,47.615417]},"f_oldcomp":3,"near_airport":1,"near_startup":5,"near_design":9},{"name":"Global Digital Media Xchange","city":"Los Angeles","state_code":"CA","location":{"type":"Point","coordinates":[-118.374904,33.943108]},"f_oldcomp":3,"near_airport":1,"near_startup":7,"near_design":20},{"name":"Edoceo","city":"Seattle","state_code":"WA","location":{"type":"Point","coordinates":[-122.333709,47.547269]},"f_oldcomp":3,"near_airport":1,"near_startup":5,"near_design":9},{"name":"SEM Wisdom","city":"Seattle","state_code":"WA","location":{"type":"Point","coordinates":[-122.2901035,47.5888393]},"f_oldcomp":3,"near_airport":1,"near_startup":5,"near_design":9},{"name":"Codemasters","city":"Universal City","state_code":"CA","location":{"type":"Point","coordinates":[-118.360617,34.138198]},"f_oldcomp":3,"near_airport":1,"near_startup":7,"near_design":18},{"name":"CBeyond","city":"Atlanta","state_code":"GA","location":{"type":"Point","coordinates":[-84.461941,33.894134]},"f_oldcomp":3,"near_airport":1,"near_startup":2,"near_design":2},{"name":"Skytap","city":"Seattle","state_code":"WA","location":{"type":"Point","coordinates":[-122.334732,47.544341]},"f_oldcomp":3,"near_airport":1,"near_startup":5,"near_design":9},{"name":"iKobo","city":"Atlanta","state_code":"GA","location":{"type":"Point","coordinates":[-84.464518,33.878814]},"f_oldcomp":3,"near_airport":1,"near_startup":2,"near_design":2},{"name":"Maestro","city":"Atlanta","state_code":"GA","location":{"type":"Point","coordinates":[-84.409621,33.79802]},"f_oldcomp":3,"near_airport":1,"near_startup":2,"near_design":6},{"name":"Silverpop","city":"Atlanta","state_code":"GA","location":{"type":"Point","coordinates":[-84.4655151,33.882526]},"f_oldcomp":3,"near_airport":1,"near_startup":2,"near_design":2},{"name":"Vertical Acuity","city":"Atlanta","state_code":"GA","location":{"type":"Point","coordinates":[-84.4709443,33.8656817]},"f_oldcomp":3,"near_airport":1,"near_startup":2,"near_design":2},{"name":"Big Nerd Ranch","city":"Atlanta","state_code":"GA","location":{"type":"Point","coordinates":[-84.322038,33.76073]},"f_oldcomp":3,"near_airport":1,"near_startup":2,"near_design":5},{"name":"CogniFit","city":"New York","state_code":"NY","location":{"type":"Point","coordinates":[-122.2850112,47.6023367]},"f_oldcomp":3,"near_airport":1,"near_startup":5,"near_design":12},{"name":"CORPAK MedSystems","city":"Wheeling","state_code":"IL","location":{"type":"Point","coordinates":[-87.918273,42.1302189]},"f_oldcomp":3,"near_airport":2,"near_startup":4,"near_design":3},{"name":"LoopFuse","city":"Atlanta","state_code":"GA","location":{"type":"Point","coordinates":[-84.44041,33.909439]},"f_oldcomp":3,"near_airport":1,"near_startup":2,"near_design":4},{"name":"Gen-Y Media","city":"Burlingame","state_code":"CA","location":{"type":"Point","coordinates":[-122.376572,37.598478]},"f_oldcomp":4,"near_airport":1,"near_startup":21,"near_design":10},{"name":"Pakt","city":null,"state_code":"CA","location":{"type":"Point","coordinates":[-118.441219,33.945553]},"f_oldcomp":4,"near_airport":1,"near_startup":7,"near_design":20},{"name":"Gameleaper","city":"Dallas","state_code":"TX","location":{"type":"Point","coordinates":[-96.8432224,32.8270045]},"f_oldcomp":4,"near_airport":1,"near_startup":2,"near_design":4},{"name":"Trusera","city":"Seattle","state_code":"WA","location":{"type":"Point","coordinates":[-122.305994,47.617122]},"f_oldcomp":4,"near_airport":1,"near_startup":5,"near_design":9},{"name":"Emerald Software Group","city":"Alpharetta","state_code":"GA","location":{"type":"Point","coordinates":[-84.272179,34.052162]},"f_oldcomp":4,"near_airport":1,"near_startup":2,"near_design":4},{"name":"BestThinking","city":"Cary","state_code":"NC","location":{"type":"Point","coordinates":[-78.7865297,35.8299099]},"f_oldcomp":4,"near_airport":1,"near_startup":3,"near_design":3},{"name":"Sky Bird Travel  Tours","city":"Burlingame","state_code":"CA","location":{"type":"Point","coordinates":[-122.368281,37.599131]},"f_oldcomp":4,"near_airport":1,"near_startup":22,"near_design":11},{"name":"The Radical Clarity Group","city":"Valley Village","state_code":"CA","location":{"type":"Point","coordinates":[-118.391352,34.164231]},"f_oldcomp":4,"near_airport":1,"near_startup":7,"near_design":20},{"name":"Hidden City Games","city":"Seattle","state_code":"WA","location":{"type":"Point","coordinates":[-122.2848651,47.6026054]},"f_oldcomp":4,"near_airport":1,"near_startup":5,"near_design":12},{"name":"Emerald Software Group","city":"Alpharetta","state_code":"GA","location":{"type":"Point","coordinates":[-84.272179,34.052162]},"f_oldcomp":4,"near_airport":1,"near_startup":2,"near_design":4},{"name":"Wine by the Bar","city":"Cary","state_code":"NC","location":{"type":"Point","coordinates":[-78.792841,35.820177]},"f_oldcomp":4,"near_airport":1,"near_startup":3,"near_design":3},{"name":"Qlubb","city":"Burlingame","state_code":"CA","location":{"type":"Point","coordinates":[-122.369448,37.567832]},"f_oldcomp":4,"near_airport":1,"near_startup":22,"near_design":11},{"name":"ScanCafe","city":"Burlingame","state_code":"CA","location":{"type":"Point","coordinates":[-122.369676,37.592584]},"f_oldcomp":4,"near_airport":1,"near_startup":22,"near_design":10},{"name":"MeDeploy","city":"Los Angeles","state_code":"CA","location":{"type":"Point","coordinates":[-118.3870991,34.1395597]},"f_oldcomp":4,"near_airport":1,"near_startup":7,"near_design":22},{"name":"Open Television Network","city":"Burbank","state_code":"CA","location":{"type":"Point","coordinates":[-118.312902,34.169493]},"f_oldcomp":4,"near_airport":1,"near_startup":7,"near_design":14},{"name":"Gorilla Nation Media","city":"Los Angeles","state_code":"CA","location":{"type":"Point","coordinates":[-118.368871,33.988735]},"f_oldcomp":4,"near_airport":1,"near_startup":7,"near_design":21},{"name":"BrightDoor Systems","city":"Cary","state_code":"NC","location":{"type":"Point","coordinates":[-78.789358,35.828121]},"f_oldcomp":4,"near_airport":1,"near_startup":3,"near_design":3},{"name":"RunE2E","city":"Alpharetta","state_code":"GA","location":{"type":"Point","coordinates":[-84.262072,34.078198]},"f_oldcomp":4,"near_airport":1,"near_startup":2,"near_design":3},{"name":"AtomicOnline","city":"Los Angeles","state_code":"CA","location":{"type":"Point","coordinates":[-118.368871,33.988735]},"f_oldcomp":4,"near_airport":1,"near_startup":7,"near_design":21},{"name":"Yieldex","city":"New York","state_code":"NY","location":{"type":"Point","coordinates":[-122.42689,37.636288]},"f_oldcomp":5,"near_airport":1,"near_startup":18,"near_design":49},{"name":"YouTube","city":"San Bruno","state_code":"CA","location":{"type":"Point","coordinates":[-122.426804,37.627971]},"f_oldcomp":5,"near_airport":1,"near_startup":18,"near_design":35},{"name":"Marketbright","city":"San Bruno","state_code":"CA","location":{"type":"Point","coordinates":[-122.422833,37.628933]},"f_oldcomp":5,"near_airport":1,"near_startup":18,"near_design":40},{"name":"Qumu","city":"San Bruno","state_code":"CA","location":{"type":"Point","coordinates":[-122.422113,37.630551]},"f_oldcomp":5,"near_airport":1,"near_startup":18,"near_design":43},{"name":"Marketbright","city":"San Bruno","state_code":"CA","location":{"type":"Point","coordinates":[-122.422833,37.628933]},"f_oldcomp":5,"near_airport":1,"near_startup":18,"near_design":40},{"name":"MeFeedia","city":"Burbank","state_code":"CA","location":{"type":"Point","coordinates":[-118.335292,34.155869]},"f_oldcomp":5,"near_airport":1,"near_startup":7,"near_design":18},{"name":"Woot","city":"Carrollton","state_code":"TX","location":{"type":"Point","coordinates":[-96.848836,33.020526]},"f_oldcomp":5,"near_airport":1,"near_startup":2,"near_design":4},{"name":"Greenbox","city":"San Bruno","state_code":"CA","location":{"type":"Point","coordinates":[-122.422562,37.62815]},"f_oldcomp":5,"near_airport":1,"near_startup":18,"near_design":40},{"name":"URockHard","city":"","state_code":"GA","location":{"type":"Point","coordinates":[-84.2756367,34.0424511]},"f_oldcomp":5,"near_airport":1,"near_startup":2,"near_design":4},{"name":"Adify","city":"San Bruno","state_code":"CA","location":{"type":"Point","coordinates":[-122.424975,37.629393]},"f_oldcomp":5,"near_airport":1,"near_startup":18,"near_design":40},{"name":"AdOn Network","city":"Tempe","state_code":"AZ","location":{"type":"Point","coordinates":[-111.9600942,33.445096]},"f_oldcomp":5,"near_airport":1,"near_startup":2,"near_design":2},{"name":"DigiSynd","city":"Burbank","state_code":"CA","location":{"type":"Point","coordinates":[-118.339013,34.152528]},"f_oldcomp":5,"near_airport":1,"near_startup":7,"near_design":18},{"name":"Ethervision","city":"Evanston","state_code":"IL","location":{"type":"Point","coordinates":[-87.720068,42.062669]},"f_oldcomp":5,"near_airport":1,"near_startup":4,"near_design":8},{"name":"Planet Metrics","city":"San Bruno","state_code":"CA","location":{"type":"Point","coordinates":[-122.420814,37.628328]},"f_oldcomp":5,"near_airport":1,"near_startup":18,"near_design":40},{"name":"Devicescape","city":"San Bruno","state_code":"CA","location":{"type":"Point","coordinates":[-122.424607,37.628518]},"f_oldcomp":5,"near_airport":1,"near_startup":18,"near_design":40}]