[{"name":"Mortgagebot","city":"Mequon","state_code":"WI","location":{"type":"Point","coordinates":[-87.9218939,43.2066859]},"f_oldcomp":0,"near_airport":1},{"name":"Dolphin Geeks","city":"","state_code":"FL","location":{"type":"Point","coordinates":[-80.421525,27.535238]},"f_oldcomp":0,"near_airport":1},{"name":"Adaptive Ozone Solutions","city":"Lenexa","state_code":"KS","location":{"type":"Point","coordinates":[-94.715428,38.984079]},"f_oldcomp":0,"near_airport":1},{"name":"Extreme Enterprises","city":"St Petersburg","state_code":"FL","location":{"type":"Point","coordinates":[-82.735899,27.770221]},"f_oldcomp":0,"near_airport":1},{"name":"VasoGenix","city":"Lenexa","state_code":"KS","location":{"type":"Point","coordinates":[-94.710676,38.974099]},"f_oldcomp":0,"near_airport":1},{"name":"LMI Aerospace","city":"St. Charles","state_code":"MO","location":{"type":"Point","coordinates":[-90.5218212,38.8275565]},"f_oldcomp":0,"near_airport":1},{"name":"Non-Member Films","city":"Detroit","state_code":"MI","location":{"type":"Point","coordinates":[-83.045913,42.330165]},"f_oldcomp":0,"near_airport":1},{"name":"MaxWest Environmental Systems","city":"Sanford","state_code":"FL","location":{"type":"Point","coordinates":[-81.269453,28.8028612]},"f_oldcomp":0,"near_airport":1},{"name":"Kickplay","city":"Naples","state_code":"FL","location":{"type":"Point","coordinates":[-81.741456,26.037363]},"f_oldcomp":0,"near_airport":1},{"name":"SDH Group","city":"St. Petersburg","state_code":"FL","location":{"type":"Point","coordinates":[-82.663026,27.765455]},"f_oldcomp":0,"near_airport":1},{"name":"Personifi","city":"Fort Worth","state_code":"TX","location":{"type":"Point","coordinates":[-97.289415,32.765915]},"f_oldcomp":0,"near_airport":2},{"name":"Digital Sports Ventures","city":"Overland Park","state_code":"KS","location":{"type":"Point","coordinates":[-94.710676,38.974099]},"f_oldcomp":0,"near_airport":1},{"name":"Magix","city":"Reno","state_code":"NV","location":{"type":"Point","coordinates":[-119.7774302,39.5148219]},"f_oldcomp":0,"near_airport":1},{"name":"M3X Media","city":"West Palm Beach","state_code":"FL","location":{"type":"Point","coordinates":[-80.099946,26.72868]},"f_oldcomp":0,"near_airport":1},{"name":"DeepRockDrive","city":"Las Vegas","state_code":"NV","location":{"type":"Point","coordinates":[-115.1374,36.1062]},"f_oldcomp":0,"near_airport":1},{"name":"Rockwell Automation","city":"Milwaukee","state_code":"WI","location":{"type":"Point","coordinates":[-87.91334,43.018237]},"f_oldcomp":0,"near_airport":2},{"name":"Attero Tech","city":"Fort Wayne","state_code":"IN","location":{"type":"Point","coordinates":[-85.1603,41.118715]},"f_oldcomp":0,"near_airport":1},{"name":"Universal Robotics","city":"Nashville","state_code":"TN","location":{"type":"Point","coordinates":[-86.6913222,36.1198745]},"f_oldcomp":0,"near_airport":1},{"name":"Non-Member Films","city":"Detroit","state_code":"MI","location":{"type":"Point","coordinates":[-83.045913,42.330165]},"f_oldcomp":0,"near_airport":1},{"name":"Raffstar","city":"Tulsa","state_code":"OK","location":{"type":"Point","coordinates":[-95.8685249,36.0179373]},"f_oldcomp":0,"near_airport":1},{"name":"ProLogic","city":"Fairmont","state_code":"WV","location":{"type":"Point","coordinates":[-80.2068598,39.4328701]},"f_oldcomp":0,"near_airport":1},{"name":"Attero Tech","city":"Fort Wayne","state_code":"IN","location":{"type":"Point","coordinates":[-85.1603,41.118715]},"f_oldcomp":0,"near_airport":1},{"name":"IonLogix Systems","city":"Waco","state_code":"TX","location":{"type":"Point","coordinates":[-97.1973664,31.5682893]},"f_oldcomp":0,"near_airport":1},{"name":"CelleCast","city":"VANCOUVER","state_code":"WA","location":{"type":"Point","coordinates":[-122.603109,45.652242]},"f_oldcomp":0,"near_airport":1},{"name":"eleap","city":"Louisville","state_code":"KY","location":{"type":"Point","coordinates":[-85.7316632,38.2409029]},"f_oldcomp":1,"near_airport":1},{"name":"DoggieInk","city":"Macon","state_code":"GA","location":{"type":"Point","coordinates":[-83.674786,32.850489]},"f_oldcomp":1,"near_airport":1},{"name":"Scary Ideas","city":"Bradenton","state_code":"FL","location":{"type":"Point","coordinates":[-82.580968,27.434873]},"f_oldcomp":1,"near_airport":1},{"name":"RIM Systems","city":"St Paul","state_code":"MN","location":{"type":"Point","coordinates":[-93.027461,45.051143]},"f_oldcomp":1,"near_airport":1},{"name":"SAS","city":"Cary","state_code":"NC","location":{"type":"Point","coordinates":[-78.765676,35.8293514]},"f_oldcomp":1,"near_airport":1},{"name":"Specialty Capital","city":"Surfside Beach","state_code":"SC","location":{"type":"Point","coordinates":[-78.8867,33.6889]},"f_oldcomp":1,"near_airport":1},{"name":"Emagic","city":"Milwaukee","state_code":"WI","location":{"type":"Point","coordinates":[-87.909151,43.042848]},"f_oldcomp":1,"near_airport":2},{"name":"Southern Growth Studio","city":"Oxford","state_code":"MS","location":{"type":"Point","coordinates":[-89.533614,34.353087]},"f_oldcomp":1,"near_airport":1},{"name":"Pumpkinfish","city":"Fort Lauderdale","state_code":"FL","location":{"type":"Point","coordinates":[-80.10334,26.165998]},"f_oldcomp":1,"near_airport":1},{"name":"Manatron","city":"Portage","state_code":"MI","location":{"type":"Point","coordinates":[-85.5846094,42.2301091]},"f_oldcomp":1,"near_airport":1},{"name":"GMA Grading","city":"Odessa","state_code":"FL","location":{"type":"Point","coordinates":[-82.568494,28.172468]},"f_oldcomp":1,"near_airport":1},{"name":"Eat Media","city":"Hastings-on-Hudson","state_code":"NY","location":{"type":"Point","coordinates":[-82.5734043,27.4964623]},"f_oldcomp":1,"near_airport":1},{"name":"WatchDoit","city":"Clovis","state_code":"CA","location":{"type":"Point","coordinates":[-119.709092,36.811069]},"f_oldcomp":1,"near_airport":1},{"name":"Stealthmode Partners","city":"Phoenix","state_code":"AZ","location":{"type":"Point","coordinates":[-112.028534,33.490383]},"f_oldcomp":1,"near_airport":1},{"name":"MyPraize","city":"Brunswick","state_code":"OH","location":{"type":"Point","coordinates":[-81.833072,41.272143]},"f_oldcomp":1,"near_airport":1},{"name":"First30Days","city":"Louisville","state_code":"KY","location":{"type":"Point","coordinates":[-85.717393,38.257035]},"f_oldcomp":1,"near_airport":1},{"name":"Maugans Corp","city":"Athens","state_code":"GA","location":{"type":"Point","coordinates":[-83.324521,33.90886]},"f_oldcomp":1,"near_airport":1},{"name":"Phonerental","city":"San Diego","state_code":"CA","location":{"type":"Point","coordinates":[-117.211471,32.74444]},"f_oldcomp":1,"near_airport":1},{"name":"Firefly Energy","city":"Peoria","state_code":"IL","location":{"type":"Point","coordinates":[-89.571813,40.76652]},"f_oldcomp":1,"near_airport":1},{"name":"American Broadband Family of Companies","city":"Fresno","state_code":"CA","location":{"type":"Point","coordinates":[-119.694929,36.779096]},"f_oldcomp":1,"near_airport":1},{"name":"VerticalCurve","city":"Winston Salem","state_code":"NC","location":{"type":"Point","coordinates":[-80.241433,36.09506]},"f_oldcomp":1,"near_airport":1},{"name":"Addoursearch","city":"Duluth","state_code":"MN","location":{"type":"Point","coordinates":[-92.201418,46.848954]},"f_oldcomp":1,"near_airport":1},{"name":"HelioVolt","city":"Austin","state_code":"TX","location":{"type":"Point","coordinates":[-97.685078,30.216908]},"f_oldcomp":1,"near_airport":1},{"name":"Frequent Flyer Network","city":"Colorado Springs","state_code":"CO","location":{"type":"Point","coordinates":[-104.722932,38.861035]},"f_oldcomp":1,"near_airport":1},{"name":"Elevate Visual Communications","city":"Muscle Shoals","state_code":"AL","location":{"type":"Point","coordinates":[-87.6306144,34.733994]},"f_oldcomp":1,"near_airport":1},{"name":"Making Sense","city":"San Antonio","state_code":"TX","location":{"type":"Point","coordinates":[-98.43676,29.516352]},"f_oldcomp":1,"near_airport":1},{"name":"SpaBoom","city":"Albuquerque","state_code":"NM","location":{"type":"Point","coordinates":[-106.646185,35.086388]},"f_oldcomp":1,"near_airport":1},{"name":"ServiceRelated","city":"Orchard Park","state_code":"NY","location":{"type":"Point","coordinates":[-78.7453547,42.775549]},"f_oldcomp":1,"near_airport":1},{"name":"iProspect","city":"Fort Worth","state_code":"TX","location":{"type":"Point","coordinates":[-97.3565529,32.7491379]},"f_oldcomp":1,"near_airport":1},{"name":"Handbags4Hunger","city":"Oshkosh","state_code":"WI","location":{"type":"Point","coordinates":[-88.546142,44.022448]},"f_oldcomp":1,"near_airport":1},{"name":"EnteGreat","city":"Birmingham","state_code":"AL","location":{"type":"Point","coordinates":[-86.7613019,33.4077856]},"f_oldcomp":1,"near_airport":1},{"name":"iPayStation","city":"Clearwater","state_code":"FL","location":{"type":"Point","coordinates":[-82.722021,27.899987]},"f_oldcomp":1,"near_airport":1},{"name":"The Icon Factory","city":"Greensboro","state_code":"NC","location":{"type":"Point","coordinates":[-79.924117,36.08901]},"f_oldcomp":1,"near_airport":1},{"name":"Pivotal Concept","city":"Springdale","state_code":"AR","location":{"type":"Point","coordinates":[-94.1483938,36.2244458]},"f_oldcomp":1,"near_airport":1},{"name":"USFINANCIALFREEDOM","city":"Phoenix","state_code":"AZ","location":{"type":"Point","coordinates":[-112.03081,33.48182]},"f_oldcomp":1,"near_airport":1},{"name":"SMEOracle","city":"San Antonio","state_code":"TX","location":{"type":"Point","coordinates":[-98.504776,29.640956]},"f_oldcomp":1,"near_airport":1},{"name":"OPEN Sports Network","city":"Deerfield Beach","state_code":"FL","location":{"type":"Point","coordinates":[-80.127087,26.310509]},"f_oldcomp":1,"near_airport":1},{"name":"Guitarati","city":"","state_code":"IL","location":{"type":"Point","coordinates":[-89.266508,39.7393]},"f_oldcomp":1,"near_airport":1},{"name":"Kellyco Metal Detectors","city":"Winter Springs","state_code":"FL","location":{"type":"Point","coordinates":[-81.3145175,28.6911811]},"f_oldcomp":1,"near_airport":1},{"name":"Studentreasures Publishing","city":"Topeka","state_code":"KS","location":{"type":"Point","coordinates":[-95.6940151,38.9933157]},"f_oldcomp":1,"near_airport":1},{"name":"ikywim creative","city":"Winter Park","state_code":"FL","location":{"type":"Point","coordinates":[-81.290729,28.621704]},"f_oldcomp":1,"near_airport":1},{"name":"Teen Togs","city":"Seattle","state_code":"WA","location":{"type":"Point","coordinates":[-122.3045438,47.5405059]},"f_oldcomp":1,"near_airport":1},{"name":"Cloudspace","city":"Orlando","state_code":"FL","location":{"type":"Point","coordinates":[-81.2181431,28.5977185]},"f_oldcomp":1,"near_airport":1},{"name":"LiveCargo","city":"Greensboro","state_code":"NC","location":{"type":"Point","coordinates":[-79.958828,36.109705]},"f_oldcomp":1,"near_airport":1},{"name":"Compolette guide to weight loss","city":"Traverse City","state_code":"MI","location":{"type":"Point","coordinates":[-85.5949,44.7408]},"f_oldcomp":1,"near_airport":1},{"name":"Park Sidekick","city":"Springboro","state_code":"OH","location":{"type":"Point","coordinates":[-84.231449,39.571363]},"f_oldcomp":1,"near_airport":1},{"name":"iScripts","city":"Deerfield","state_code":"IL","location":{"type":"Point","coordinates":[-87.9215314,42.1652513]},"f_oldcomp":1,"near_airport":2},{"name":"CD Baby","city":"Portland","state_code":"OR","location":{"type":"Point","coordinates":[-122.5804645,45.5658422]},"f_oldcomp":1,"near_airport":1},{"name":"FinFolio","city":"Las Vegas","state_code":"NV","location":{"type":"Point","coordinates":[-115.154816,36.136552]},"f_oldcomp":1,"near_airport":1},{"name":"PerfectServe","city":"Knoxville","state_code":"TN","location":{"type":"Point","coordinates":[-84.0132568,35.9468964]},"f_oldcomp":1,"near_airport":1},{"name":"BeliefNetworks","city":"Charleston","state_code":"SC","location":{"type":"Point","coordinates":[-79.999591,32.783932]},"f_oldcomp":1,"near_airport":1},{"name":"Aprius","city":"Washington","state_code":"DC","location":{"type":"Point","coordinates":[-117.5357108,47.6409655]},"f_oldcomp":1,"near_airport":1},{"name":"Dell","city":"Round Rock","state_code":"TX","location":{"type":"Point","coordinates":[-97.671188,30.486188]},"f_oldcomp":1,"near_airport":1},{"name":"MyOtherDrive","city":"Dayton","state_code":"OH","location":{"type":"Point","coordinates":[-84.1949463,39.7605421]},"f_oldcomp":1,"near_airport":1},{"name":"ePartners","city":"Crawfordville","state_code":"FL","location":{"type":"Point","coordinates":[-84.370242,30.1799941]},"f_oldcomp":1,"near_airport":1},{"name":"ePartners","city":"Tampa","state_code":"FL","location":{"type":"Point","coordinates":[-82.535172,27.951383]},"f_oldcomp":1,"near_airport":1},{"name":"OBE Pro","city":"Indian Harbour Beach","state_code":"FL","location":{"type":"Point","coordinates":[-80.5883964,28.1524632]},"f_oldcomp":1,"near_airport":1},{"name":"Skalfa","city":"South Bend","state_code":"IN","location":{"type":"Point","coordinates":[-86.27604,41.601645]},"f_oldcomp":1,"near_airport":1},{"name":"3stepAdvertising","city":"West Lafayette","state_code":"IN","location":{"type":"Point","coordinates":[-86.915756,40.448162]},"f_oldcomp":1,"near_airport":1},{"name":"BusinessNameUSA","city":"LONG BEACH","state_code":"CA","location":{"type":"Point","coordinates":[-118.1240001,33.7570182]},"f_oldcomp":1,"near_airport":1},{"name":"eBureau","city":"St. Cloud","state_code":"MN","location":{"type":"Point","coordinates":[-94.159452,45.560899]},"f_oldcomp":1,"near_airport":1},{"name":"Personal Estate Manager","city":"Shelby Township","state_code":"MI","location":{"type":"Point","coordinates":[-83.0294402,42.6031277]},"f_oldcomp":1,"near_airport":1},{"name":"Avenue Right","city":"Fargo","state_code":"ND","location":{"type":"Point","coordinates":[-96.8098798,46.9037602]},"f_oldcomp":1,"near_airport":1},{"name":"PDUs Direct","city":"Reno","state_code":"NV","location":{"type":"Point","coordinates":[-119.749721,39.444421]},"f_oldcomp":1,"near_airport":1},{"name":"ScanDigital","city":"Torrance","state_code":"CA","location":{"type":"Point","coordinates":[-118.41747,33.918151]},"f_oldcomp":1,"near_airport":1},{"name":"MPC Studios","city":"Harlingen","state_code":"TX","location":{"type":"Point","coordinates":[-97.6932804,26.1906343]},"f_oldcomp":1,"near_airport":1},{"name":"CogCog","city":"Akron","state_code":"OH","location":{"type":"Point","coordinates":[-81.473725,41.143544]},"f_oldcomp":1,"near_airport":1},{"name":"Sharp Interactive","city":"Medina","state_code":"OH","location":{"type":"Point","coordinates":[-81.847401,41.11366]},"f_oldcomp":1,"near_airport":1},{"name":"Analytical Graphics","city":"Long Beach","state_code":"CA","location":{"type":"Point","coordinates":[-118.14689,33.8068693]},"f_oldcomp":1,"near_airport":1},{"name":"AutoClaims Direct","city":"Prescott","state_code":"AZ","location":{"type":"Point","coordinates":[-112.458454,34.600895]},"f_oldcomp":1,"near_airport":1},{"name":"Tribridge","city":"Tampa","state_code":"FL","location":{"type":"Point","coordinates":[-82.5265497,27.9447371]},"f_oldcomp":1,"near_airport":1},{"name":"Streamy","city":"Manhattan Beach","state_code":"CA","location":{"type":"Point","coordinates":[-118.418098,33.901121]},"f_oldcomp":1,"near_airport":1},{"name":"eCommerce Positioning","city":"everett","state_code":"WA","location":{"type":"Point","coordinates":[-122.255136,47.931263]},"f_oldcomp":1,"near_airport":1},{"name":"LEVEL Studios","city":"San Luis Obispo","state_code":"CA","location":{"type":"Point","coordinates":[-120.6460235,35.2543042]},"f_oldcomp":1,"near_airport":1},{"name":"OffsetX","city":"Marietta","state_code":"GA","location":{"type":"Point","coordinates":[-84.461877,34.037272]},"f_oldcomp":1,"near_airport":1},{"name":"Sitestar","city":"Lynchburg","state_code":"VA","location":{"type":"Point","coordinates":[-79.210057,37.362749]},"f_oldcomp":1,"near_airport":1},{"name":"Divergence","city":"St. Louis","state_code":"MO","location":{"type":"Point","coordinates":[-90.3949118,38.6721461]},"f_oldcomp":1,"near_airport":1},{"name":"NativeX","city":"Sartell","state_code":"MN","location":{"type":"Point","coordinates":[-94.1993943,45.5940066]},"f_oldcomp":1,"near_airport":1},{"name":"Kylin Therapeutics","city":"West Lafayette","state_code":"IN","location":{"type":"Point","coordinates":[-86.9316959,40.4653401]},"f_oldcomp":1,"near_airport":1},{"name":"Google","city":"Pittsburgh","state_code":"PA","location":{"type":"Point","coordinates":[-79.946269,40.444528]},"f_oldcomp":1,"near_airport":1},{"name":"Lime Kiln Camera","city":"Baton Rouge","state_code":"LA","location":{"type":"Point","coordinates":[-91.129604,30.46788]},"f_oldcomp":1,"near_airport":1},{"name":"Applied Research Associates","city":"Albuquerque","state_code":"NM","location":{"type":"Point","coordinates":[-106.585701,35.129688]},"f_oldcomp":1,"near_airport":1},{"name":"BioStable","city":"Austin,","state_code":"TX","location":{"type":"Point","coordinates":[-97.669955,30.327779]},"f_oldcomp":1,"near_airport":1},{"name":"StellarSurvey","city":"Milwaukee","state_code":"WI","location":{"type":"Point","coordinates":[-87.895093,43.097697]},"f_oldcomp":1,"near_airport":2},{"name":"Gigablast","city":"Albuquerque","state_code":"NM","location":{"type":"Point","coordinates":[-106.626718,35.08133]},"f_oldcomp":1,"near_airport":1},{"name":"ThemBid","city":"Rancho Cucamonga","state_code":"CA","location":{"type":"Point","coordinates":[-117.572967,34.099253]},"f_oldcomp":1,"near_airport":1},{"name":"Zotec Partners","city":"Macon","state_code":"GA","location":{"type":"Point","coordinates":[-83.6352061,32.834219]},"f_oldcomp":1,"near_airport":1},{"name":"Zotec Partners","city":"Charleston","state_code":"SC","location":{"type":"Point","coordinates":[-80.018119,32.799507]},"f_oldcomp":1,"near_airport":1},{"name":"KallOut","city":"Monterey","state_code":"CA","location":{"type":"Point","coordinates":[-121.808255,36.572851]},"f_oldcomp":1,"near_airport":1},{"name":"TruPoint Partners","city":"Charlotte","state_code":"NC","location":{"type":"Point","coordinates":[-80.9436344,35.0087179]},"f_oldcomp":1,"near_airport":1},{"name":"Mainstream energy","city":"San Luis Obispo","state_code":"CA","location":{"type":"Point","coordinates":[-120.6425269,35.2441852]},"f_oldcomp":1,"near_airport":1},{"name":"Dabbledoo","city":"Clayton","state_code":"MO","location":{"type":"Point","coordinates":[-90.3418927,38.6472433]},"f_oldcomp":1,"near_airport":1},{"name":"Outdoorzy","city":"Bowling Green","state_code":null,"location":{"type":"Point","coordinates":[-86.463026,37.018244]},"f_oldcomp":1,"near_airport":1},{"name":"Streamline Alliance","city":"","state_code":"FL","location":{"type":"Point","coordinates":[-82.701882,27.770937]},"f_oldcomp":1,"near_airport":1},{"name":"Radio One Llama","city":"Champaign","state_code":"IL","location":{"type":"Point","coordinates":[-88.271074,40.1128]},"f_oldcomp":1,"near_airport":1},{"name":"Ratchet","city":"Los Angeles","state_code":"CA","location":{"type":"Point","coordinates":[-118.109206,33.810534]},"f_oldcomp":1,"near_airport":1},{"name":"Siboney Learning Group","city":"Saint Louis","state_code":"MO","location":{"type":"Point","coordinates":[-90.4062805,38.583545]},"f_oldcomp":1,"near_airport":1},{"name":"Warehouse Intellect","city":"Minneapolis","state_code":"MN","location":{"type":"Point","coordinates":[-93.22987,44.973317]},"f_oldcomp":1,"near_airport":1},{"name":"FuseMail","city":"Kansas City","state_code":"MO","location":{"type":"Point","coordinates":[-94.682422,39.313993]},"f_oldcomp":1,"near_airport":1},{"name":"BatteryFuel","city":"Oklahoma City","state_code":"OK","location":{"type":"Point","coordinates":[-97.6206672,35.5941782]},"f_oldcomp":1,"near_airport":1},{"name":"Goodrich Corporation","city":"Charlotte","state_code":"NC","location":{"type":"Point","coordinates":[-80.916894,35.189565]},"f_oldcomp":1,"near_airport":1},{"name":"PolygonsWild","city":"Orlando","state_code":"FL","location":{"type":"Point","coordinates":[-81.240869,28.588018]},"f_oldcomp":1,"near_airport":1},{"name":"Advanced Virtual Surveillance","city":"Dallas","state_code":"TX","location":{"type":"Point","coordinates":[-96.890405,32.913601]},"f_oldcomp":1,"near_airport":1},{"name":"Ratajik Software","city":"Columbia","state_code":"SC","location":{"type":"Point","coordinates":[-81.108574,34.042305]},"f_oldcomp":1,"near_airport":1},{"name":"ITBrix","city":"Colorado Springs","state_code":"CO","location":{"type":"Point","coordinates":[-104.789289,38.919042]},"f_oldcomp":1,"near_airport":1},{"name":"Lounge|Press","city":"Boynton Beach","state_code":"FL","location":{"type":"Point","coordinates":[-80.108189,26.539706]},"f_oldcomp":1,"near_airport":1},{"name":"Hotelicopter","city":"Charlottesville","state_code":"VA","location":{"type":"Point","coordinates":[-78.48158,38.030823]},"f_oldcomp":1,"near_airport":1},{"name":"MeterNet","city":"Long Beach","state_code":"CA","location":{"type":"Point","coordinates":[-118.182966,33.8388051]},"f_oldcomp":1,"near_airport":1},{"name":"ShockWatch","city":"Dallas","state_code":"TX","location":{"type":"Point","coordinates":[-96.870924,32.818985]},"f_oldcomp":1,"near_airport":1},{"name":"ONEsite","city":"Oklahoma City","state_code":"OK","location":{"type":"Point","coordinates":[-97.5736,35.612679]},"f_oldcomp":1,"near_airport":1},{"name":"Arisdyne Systems","city":"Cleveland","state_code":"OH","location":{"type":"Point","coordinates":[-81.822531,41.424425]},"f_oldcomp":1,"near_airport":1},{"name":"Esperion Therapeutics","city":"Plymouth","state_code":"MI","location":{"type":"Point","coordinates":[-83.5069834,42.3853985]},"f_oldcomp":1,"near_airport":1},{"name":"RF Micro Devices","city":"Greensboro","state_code":"NC","location":{"type":"Point","coordinates":[-79.965343,36.076288]},"f_oldcomp":1,"near_airport":1},{"name":"Enerpulse","city":"Albuquerque","state_code":"NM","location":{"type":"Point","coordinates":[-106.617561,35.055164]},"f_oldcomp":1,"near_airport":1},{"name":"StaffingForce","city":"Newport Beach","state_code":"CA","location":{"type":"Point","coordinates":[-117.873197,33.618433]},"f_oldcomp":1,"near_airport":1},{"name":"Trinex Commercial Finance","city":"Santa Ana","state_code":"CA","location":{"type":"Point","coordinates":[-117.836899,33.748236]},"f_oldcomp":1,"near_airport":1},{"name":"TRIRIGA","city":"Las Vegas","state_code":"NV","location":{"type":"Point","coordinates":[-115.162279,36.0686005]},"f_oldcomp":1,"near_airport":1},{"name":"Paragent","city":"Muncie","state_code":"IN","location":{"type":"Point","coordinates":[-85.4153237,40.1899111]},"f_oldcomp":1,"near_airport":1},{"name":"Stardock","city":"Plymouth","state_code":"MI","location":{"type":"Point","coordinates":[-83.510167,42.392452]},"f_oldcomp":1,"near_airport":1},{"name":"Golf Digest Planner","city":"Farmington","state_code":"MI","location":{"type":"Point","coordinates":[-83.378093,42.463718]},"f_oldcomp":1,"near_airport":1},{"name":"Cyberhomes","city":"Jacksonville","state_code":"FL","location":{"type":"Point","coordinates":[-81.674745,30.318112]},"f_oldcomp":1,"near_airport":1},{"name":"Privaris","city":"Charlottesville","state_code":"VA","location":{"type":"Point","coordinates":[-78.436144,38.023023]},"f_oldcomp":1,"near_airport":1},{"name":"Centennial Communications Corp","city":"Fort Wayne","state_code":"IN","location":{"type":"Point","coordinates":[-85.190848,41.074646]},"f_oldcomp":1,"near_airport":1},{"name":"Gimigo","city":"Seattle","state_code":"WA","location":{"type":"Point","coordinates":[-93.226503,44.859587]},"f_oldcomp":1,"near_airport":1},{"name":"Clupedia","city":"Santa Ana","state_code":"CA","location":{"type":"Point","coordinates":[-117.885161,33.73076]},"f_oldcomp":1,"near_airport":1},{"name":"Tolera Therapeutics","city":"Kalamazoo","state_code":"MI","location":{"type":"Point","coordinates":[-85.5796432,42.2927344]},"f_oldcomp":1,"near_airport":1},{"name":"SNASM","city":"Boynton Beach","state_code":"FL","location":{"type":"Point","coordinates":[-80.082474,26.528215]},"f_oldcomp":1,"near_airport":1},{"name":"divorce360","city":"North Palm Beach","state_code":"FL","location":{"type":"Point","coordinates":[-80.058401,26.820375]},"f_oldcomp":1,"near_airport":1},{"name":"Aspen Surgical","city":"Caledonia","state_code":"MI","location":{"type":"Point","coordinates":[-85.5345963,42.8373631]},"f_oldcomp":1,"near_airport":1},{"name":"Yodle","city":"Charlotte","state_code":"NC","location":{"type":"Point","coordinates":[-80.916109,35.139441]},"f_oldcomp":1,"near_airport":1},{"name":"Inova Solutions","city":"Charlottesville","state_code":"VA","location":{"type":"Point","coordinates":[-78.475941,38.027849]},"f_oldcomp":1,"near_airport":1},{"name":"TrueSpan","city":"Long Beach","state_code":"CA","location":{"type":"Point","coordinates":[-118.1463485,33.8067898]},"f_oldcomp":1,"near_airport":1},{"name":"Diigo","city":"Reno","state_code":"NV","location":{"type":"Point","coordinates":[-119.81439,39.530368]},"f_oldcomp":1,"near_airport":1},{"name":"neulio","city":"Winter Springs","state_code":"FL","location":{"type":"Point","coordinates":[-81.264465,28.689041]},"f_oldcomp":1,"near_airport":1},{"name":"OfferWire","city":"Vero Beach","state_code":"FL","location":{"type":"Point","coordinates":[-80.3821092,27.6476577]},"f_oldcomp":1,"near_airport":1},{"name":"RuffWire","city":"Brunswick","state_code":"GA","location":{"type":"Point","coordinates":[-81.4830594,31.1568341]},"f_oldcomp":2,"near_airport":1},{"name":"Vocera Communications","city":"San Jose","state_code":"CA","location":{"type":"Point","coordinates":[-121.911101,37.3190224]},"f_oldcomp":2,"near_airport":1},{"name":"Nabbit","city":"Eagan","state_code":"MN","location":{"type":"Point","coordinates":[-93.1693,44.857568]},"f_oldcomp":2,"near_airport":1},{"name":"SparkBase","city":"Cleveland","state_code":"OH","location":{"type":"Point","coordinates":[-81.666101,41.513652]},"f_oldcomp":2,"near_airport":1},{"name":"Spotmau Corporation","city":"Humble","state_code":"TX","location":{"type":"Point","coordinates":[-95.3082988,29.985528]},"f_oldcomp":2,"near_airport":2},{"name":"Find Your Voice","city":"St. Louis","state_code":"MO","location":{"type":"Point","coordinates":[-90.368587,38.669226]},"f_oldcomp":2,"near_airport":1},{"name":"Spotmau Corporation","city":"Humble","state_code":"TX","location":{"type":"Point","coordinates":[-95.3082988,29.985528]},"f_oldcomp":2,"near_airport":2},{"name":"Pepmall","city":"","state_code":"CA","location":{"type":"Point","coordinates":[-88.10135,44.528743]},"f_oldcomp":2,"near_airport":1},{"name":"ThePlanet","city":"Houston","state_code":"TX","location":{"type":"Point","coordinates":[-95.369034,29.762331]},"f_oldcomp":2,"near_airport":1},{"name":"Acxiom","city":"Little Rock","state_code":"AR","location":{"type":"Point","coordinates":[-92.2647169,34.7453104]},"f_oldcomp":2,"near_airport":1},{"name":"Acxiom","city":"Little Rock","state_code":"AR","location":{"type":"Point","coordinates":[-92.2647169,34.7453104]},"f_oldcomp":2,"near_airport":1},{"name":"deeplocal","city":"Pittsburgh","state_code":"PA","location":{"type":"Point","coordinates":[-79.923411,40.461149]},"f_oldcomp":2,"near_airport":1},{"name":"RuffWire","city":"Brunswick","state_code":"GA","location":{"type":"Point","coordinates":[-81.4830594,31.1568341]},"f_oldcomp":2,"near_airport":1},{"name":"Inuvo","city":"Clearwater","state_code":"FL","location":{"type":"Point","coordinates":[-82.702449,27.913011]},"f_oldcomp":2,"near_airport":1},{"name":"Pixelita Designs","city":"Houston","state_code":"TX","location":{"type":"Point","coordinates":[-95.313311,29.718868]},"f_oldcomp":2,"near_airport":2},{"name":"Pepmall","city":"","state_code":"CA","location":{"type":"Point","coordinates":[-88.10135,44.528743]},"f_oldcomp":2,"near_airport":1},{"name":"Inuvo","city":"Clearwater","state_code":"FL","location":{"type":"Point","coordinates":[-82.702449,27.913011]},"f_oldcomp":2,"near_airport":1},{"name":"CampusEAI","city":"Cleveland","state_code":"OH","location":{"type":"Point","coordinates":[-81.6747295,41.5139193]},"f_oldcomp":2,"near_airport":1},{"name":"MedicareSaver","city":"Flower Mound","state_code":"TX","location":{"type":"Point","coordinates":[-97.069403,33.020039]},"f_oldcomp":2,"near_airport":1},{"name":"LenderFlex","city":"Atlanta","state_code":"GA","location":{"type":"Point","coordinates":[-84.2995,33.75]},"f_oldcomp":2,"near_airport":1},{"name":"Nibea","city":"Oakland","state_code":"CA","location":{"type":"Point","coordinates":[-122.214897,37.772323]},"f_oldcomp":2,"near_airport":1},{"name":"No Star Clothing","city":"Portland","state_code":"OR","location":{"type":"Point","coordinates":[-122.626386,45.53467]},"f_oldcomp":2,"near_airport":1},{"name":"Ridemakerz","city":"Saint Louis","state_code":"MO","location":{"type":"Point","coordinates":[-90.354532,38.691084]},"f_oldcomp":2,"near_airport":1},{"name":"Agilis Systems","city":"St. Louis","state_code":"MO","location":{"type":"Point","coordinates":[-90.471595,38.681201]},"f_oldcomp":2,"near_airport":1},{"name":"CardOffers","city":"Miami","state_code":"FL","location":{"type":"Point","coordinates":[-80.181605,25.965483]},"f_oldcomp":2,"near_airport":1},{"name":"Genuitec","city":"Flower Mound","state_code":"TX","location":{"type":"Point","coordinates":[-97.0622309,33.0726655]},"f_oldcomp":2,"near_airport":1},{"name":"Blue Sky Technologies","city":"Coppell","state_code":"TX","location":{"type":"Point","coordinates":[-96.9932926,32.9844884]},"f_oldcomp":2,"near_airport":1},{"name":"Datachamps","city":"Phoenix","state_code":"AZ","location":{"type":"Point","coordinates":[-111.9641728,33.4962205]},"f_oldcomp":2,"near_airport":1},{"name":"Tubu Internet Solutions","city":"Munhall","state_code":"PA","location":{"type":"Point","coordinates":[-79.903706,40.385094]},"f_oldcomp":2,"near_airport":1},{"name":"Logisuite","city":"Hialeah","state_code":"FL","location":{"type":"Point","coordinates":[-80.3142203,25.8666423]},"f_oldcomp":2,"near_airport":1},{"name":"SnapStream Media","city":"Houston","state_code":"TX","location":{"type":"Point","coordinates":[-95.308391,29.685897]},"f_oldcomp":2,"near_airport":2},{"name":"Bid 4 Good","city":"Palm Springs","state_code":"CA","location":{"type":"Point","coordinates":[-116.5447,33.8306]},"f_oldcomp":2,"near_airport":1},{"name":"Uronimo","city":"Palm Springs","state_code":"CA","location":{"type":"Point","coordinates":[-116.527473,33.822202]},"f_oldcomp":2,"near_airport":1},{"name":"Viper Logic","city":"Palm Springs","state_code":"CA","location":{"type":"Point","coordinates":[-116.533993,33.804503]},"f_oldcomp":2,"near_airport":1},{"name":"Quova","city":"Marietta","state_code":"GA","location":{"type":"Point","coordinates":[-84.426962,34.026926]},"f_oldcomp":2,"near_airport":1},{"name":"MeterNet","city":"Las Vegas","state_code":"NV","location":{"type":"Point","coordinates":[-115.12637,36.173634]},"f_oldcomp":2,"near_airport":1},{"name":"iCluck","city":"Cheektowaga","state_code":"NY","location":{"type":"Point","coordinates":[-78.744343,42.940938]},"f_oldcomp":2,"near_airport":1},{"name":"Localize Internet Marketing","city":"Las Vegas","state_code":"NV","location":{"type":"Point","coordinates":[-115.1413685,36.1680573]},"f_oldcomp":2,"near_airport":1},{"name":"SpiderOak","city":"Northbrook","state_code":"IL","location":{"type":"Point","coordinates":[-87.862305,42.142261]},"f_oldcomp":2,"near_airport":1},{"name":"AirMe","city":"Colorado Springs","state_code":"CO","location":{"type":"Point","coordinates":[-104.82136,38.838114]},"f_oldcomp":2,"near_airport":1},{"name":"Easy Autos","city":"Atlanta","state_code":"GA","location":{"type":"Point","coordinates":[-84.4455862,33.8631903]},"f_oldcomp":2,"near_airport":1},{"name":"TennisPoint","city":"Marietta","state_code":"GA","location":{"type":"Point","coordinates":[-84.444006,33.939116]},"f_oldcomp":2,"near_airport":1},{"name":"Handipoints","city":"Oakland","state_code":"CA","location":{"type":"Point","coordinates":[-122.214897,37.772323]},"f_oldcomp":2,"near_airport":1},{"name":"YellowBot","city":"Burbank","state_code":"CA","location":{"type":"Point","coordinates":[-118.3489963,34.1872813]},"f_oldcomp":2,"near_airport":1},{"name":"Solfo","city":"Burbank","state_code":"CA","location":{"type":"Point","coordinates":[-118.3489963,34.1872813]},"f_oldcomp":2,"near_airport":1},{"name":"PINC Solutions","city":"Alameda","state_code":"CA","location":{"type":"Point","coordinates":[-122.243783,37.726339]},"f_oldcomp":2,"near_airport":1},{"name":"Accellos","city":"Colorado Springs","state_code":"CO","location":{"type":"Point","coordinates":[-104.826256,38.833716]},"f_oldcomp":2,"near_airport":1},{"name":"Frupee","city":"Lutz","state_code":"FL","location":{"type":"Point","coordinates":[-82.5023314,28.1242277]},"f_oldcomp":2,"near_airport":1},{"name":"Gridline Communications","city":"Frisco","state_code":"TX","location":{"type":"Point","coordinates":[-106.6344861,35.0728607]},"f_oldcomp":2,"near_airport":1},{"name":"ReSolutions LLC","city":"Birmingham","state_code":"AL","location":{"type":"Point","coordinates":[-86.7935892,33.476946]},"f_oldcomp":2,"near_airport":1},{"name":"INgage Networks","city":"Naples","state_code":"FL","location":{"type":"Point","coordinates":[-81.788104,26.246414]},"f_oldcomp":2,"near_airport":1},{"name":"ParableSoft","city":"Tampa","state_code":"FL","location":{"type":"Point","coordinates":[-82.4992,27.952334]},"f_oldcomp":2,"near_airport":1},{"name":"Google","city":"Coppell","state_code":"TX","location":{"type":"Point","coordinates":[-97.018196,32.981465]},"f_oldcomp":2,"near_airport":1},{"name":"The Planet","city":"Houston","state_code":"TX","location":{"type":"Point","coordinates":[-95.369034,29.762331]},"f_oldcomp":2,"near_airport":1},{"name":"Tech Profuse","city":"Little Canada","state_code":"MN","location":{"type":"Point","coordinates":[-93.0914376,45.0062594]},"f_oldcomp":2,"near_airport":1},{"name":"ePhiphony Incorporated","city":"Eagan","state_code":"MN","location":{"type":"Point","coordinates":[-93.2038492,44.8067033]},"f_oldcomp":2,"near_airport":1},{"name":"SlapVid","city":"Pittsburgh","state_code":"PA","location":{"type":"Point","coordinates":[-79.948563,40.445009]},"f_oldcomp":2,"near_airport":1},{"name":"Tang Wind Energy","city":"Dallas","state_code":"TX","location":{"type":"Point","coordinates":[-96.840091,32.749238]},"f_oldcomp":2,"near_airport":1},{"name":"Singulex","city":"Alameda","state_code":"CA","location":{"type":"Point","coordinates":[-122.240937,37.723803]},"f_oldcomp":2,"near_airport":1},{"name":"TicketBiscuit","city":"Birmingham","state_code":"AL","location":{"type":"Point","coordinates":[-86.785513,33.3610725]},"f_oldcomp":2,"near_airport":1},{"name":"Direct Hit","city":"Melbourne","state_code":"FL","location":{"type":"Point","coordinates":[-80.6475007,28.0854206]},"f_oldcomp":2,"near_airport":1},{"name":"Info-Surge","city":"Williamsville","state_code":"NY","location":{"type":"Point","coordinates":[-78.7552035,42.9602249]},"f_oldcomp":2,"near_airport":1},{"name":"MicroMedia","city":"Naples","state_code":"FL","location":{"type":"Point","coordinates":[-81.805007,26.194158]},"f_oldcomp":2,"near_airport":1},{"name":"Stericycle","city":"Lake Forest","state_code":"IL","location":{"type":"Point","coordinates":[-87.9031788,42.271319]},"f_oldcomp":2,"near_airport":2},{"name":"Armstead Enterprise","city":"Colorado Springs","state_code":"CO","location":{"type":"Point","coordinates":[-104.8205,38.8338]},"f_oldcomp":2,"near_airport":1},{"name":"MarketLine Research","city":"Minneapolis","state_code":"MN","location":{"type":"Point","coordinates":[-93.235614,44.982264]},"f_oldcomp":2,"near_airport":1},{"name":"Lipella Pharmaceuticals","city":"Pittsburgh","state_code":"PA","location":{"type":"Point","coordinates":[-79.8982424,40.4509038]},"f_oldcomp":2,"near_airport":1},{"name":"Shopseen","city":"San Francisco","state_code":"CA","location":{"type":"Point","coordinates":[-122.214897,37.772323]},"f_oldcomp":2,"near_airport":1},{"name":"The Bump","city":"Phoenix","state_code":"AZ","location":{"type":"Point","coordinates":[-112.002319,33.495167]},"f_oldcomp":2,"near_airport":1},{"name":"Kinetic Data","city":"St. Paul","state_code":"MN","location":{"type":"Point","coordinates":[-93.0878626,44.9500232]},"f_oldcomp":2,"near_airport":1},{"name":"Iron Solutions","city":"Fenton","state_code":"MT","location":{"type":"Point","coordinates":[-90.469289,38.523516]},"f_oldcomp":2,"near_airport":1},{"name":"Ultracell","city":"Vandalia","state_code":"OH","location":{"type":"Point","coordinates":[-84.220287,39.912944]},"f_oldcomp":2,"near_airport":1},{"name":"Brite Green Janitorial Services","city":"Decatur","state_code":"GA","location":{"type":"Point","coordinates":[-84.2965,33.7749]},"f_oldcomp":2,"near_airport":1},{"name":"One Call Now","city":"Troy","state_code":"OH","location":{"type":"Point","coordinates":[-84.2100702,40.0336717]},"f_oldcomp":2,"near_airport":1},{"name":"Lee Enterprises","city":"Sherwood","state_code":"AR","location":{"type":"Point","coordinates":[-92.216679,34.833174]},"f_oldcomp":2,"near_airport":1},{"name":"Perceptis","city":"Phoenix","state_code":"AZ","location":{"type":"Point","coordinates":[-111.974507,33.357125]},"f_oldcomp":2,"near_airport":1},{"name":"National Business Brokerage","city":"Sherwood","state_code":"AR","location":{"type":"Point","coordinates":[-92.216679,34.833174]},"f_oldcomp":2,"near_airport":1},{"name":"Zebra Technologies","city":"Lincolnshire","state_code":"IL","location":{"type":"Point","coordinates":[-87.9024928,42.2003645]},"f_oldcomp":2,"near_airport":2},{"name":"RevJobs","city":"Santa Barbara","state_code":"CA","location":{"type":"Point","coordinates":[-119.8084281,34.4335255]},"f_oldcomp":3,"near_airport":1},{"name":"maufait","city":"Omaha","state_code":"NE","location":{"type":"Point","coordinates":[-95.942336,41.259751]},"f_oldcomp":3,"near_airport":1},{"name":"Sunovia","city":"Sarasota","state_code":"FL","location":{"type":"Point","coordinates":[-82.5362596,27.4281996]},"f_oldcomp":3,"near_airport":1},{"name":"HelpMeTy","city":"New Brighton","state_code":"MN","location":{"type":"Point","coordinates":[-93.190885,45.045772]},"f_oldcomp":3,"near_airport":1},{"name":"IMT (Innovative Micro Technology)","city":"Santa Barbara","state_code":"CA","location":{"type":"Point","coordinates":[-119.8462682,34.4356217]},"f_oldcomp":3,"near_airport":1},{"name":"OnlineBootyCall","city":"San Diego","state_code":"CA","location":{"type":"Point","coordinates":[-117.1566968,32.7674437]},"f_oldcomp":3,"near_airport":1},{"name":"LivePerson","city":"Atlanta","state_code":"GA","location":{"type":"Point","coordinates":[-84.4709443,33.8656817]},"f_oldcomp":3,"near_airport":1},{"name":"XDx","city":"Brisbane","state_code":"CA","location":{"type":"Point","coordinates":[-122.4040269,37.691226]},"f_oldcomp":3,"near_airport":1},{"name":"xlr8 Technologies","city":"Cary","state_code":"NC","location":{"type":"Point","coordinates":[-78.7809469,35.766855]},"f_oldcomp":3,"near_airport":1},{"name":"Caliber Infosolutions","city":"Pittsburgh","state_code":"PA","location":{"type":"Point","coordinates":[-79.9592672,40.4301988]},"f_oldcomp":3,"near_airport":1},{"name":"Web Piston","city":"Tampa","state_code":"FL","location":{"type":"Point","coordinates":[-82.504803,28.031821]},"f_oldcomp":3,"near_airport":1},{"name":"ESA","city":"Oldsmar","state_code":"FL","location":{"type":"Point","coordinates":[-82.6563956,28.0450609]},"f_oldcomp":3,"near_airport":1},{"name":"InTouch Technologies","city":"Santa Barbara","state_code":"CA","location":{"type":"Point","coordinates":[-119.861747,34.4334453]},"f_oldcomp":3,"near_airport":1},{"name":"Rhiza Labs","city":"Pittsburgh","state_code":"PA","location":{"type":"Point","coordinates":[-79.965865,40.4277409]},"f_oldcomp":3,"near_airport":1},{"name":"Lookfab","city":"Seattle","state_code":"WA","location":{"type":"Point","coordinates":[-122.294485,47.615417]},"f_oldcomp":3,"near_airport":1},{"name":"Clusty","city":"Pittsburgh","state_code":"PA","location":{"type":"Point","coordinates":[-79.915015,40.431653]},"f_oldcomp":3,"near_airport":1},{"name":"Global Digital Media Xchange","city":"Los Angeles","state_code":"CA","location":{"type":"Point","coordinates":[-118.374904,33.943108]},"f_oldcomp":3,"near_airport":1},{"name":"ScientificMatch","city":"Naples","state_code":"FL","location":{"type":"Point","coordinates":[-81.803473,26.1915]},"f_oldcomp":3,"near_airport":1},{"name":"Lead411","city":"Santa Fe","state_code":"NM","location":{"type":"Point","coordinates":[-119.808428,34.433526]},"f_oldcomp":3,"near_airport":1},{"name":"Smash Technologies","city":"Pittsburgh,","state_code":null,"location":{"type":"Point","coordinates":[-79.9707345,40.4290508]},"f_oldcomp":3,"near_airport":1},{"name":"Silicon Prairie News","city":"Omaha","state_code":"NE","location":{"type":"Point","coordinates":[-95.942336,41.259751]},"f_oldcomp":3,"near_airport":1},{"name":"What Cheer","city":"Omaha","state_code":"NE","location":{"type":"Point","coordinates":[-95.9336828,41.265831]},"f_oldcomp":3,"near_airport":1},{"name":"Citrix Online","city":"Goleta","state_code":"CA","location":{"type":"Point","coordinates":[-119.855405,34.431454]},"f_oldcomp":3,"near_airport":1},{"name":"Balihoo","city":"Boise","state_code":"ID","location":{"type":"Point","coordinates":[-116.205637,43.61295]},"f_oldcomp":3,"near_airport":1},{"name":"OneCommunity","city":"Cleveland","state_code":"OH","location":{"type":"Point","coordinates":[-81.699457,41.4991436]},"f_oldcomp":3,"near_airport":1},{"name":"Zolio","city":"Cleveland","state_code":"OH","location":{"type":"Point","coordinates":[-81.693716,41.499713]},"f_oldcomp":3,"near_airport":1},{"name":"Edoceo","city":"Seattle","state_code":"WA","location":{"type":"Point","coordinates":[-122.333709,47.547269]},"f_oldcomp":3,"near_airport":1},{"name":"Onebox","city":"Glencoe","state_code":"IL","location":{"type":"Point","coordinates":[-87.7581602,42.1350698]},"f_oldcomp":3,"near_airport":1},{"name":"SEM Wisdom","city":"Seattle","state_code":"WA","location":{"type":"Point","coordinates":[-122.2901035,47.5888393]},"f_oldcomp":3,"near_airport":1},{"name":"Fansoft Media","city":"Seattle","state_code":"WA","location":{"type":"Point","coordinates":[-89.367591,43.079324]},"f_oldcomp":3,"near_airport":1},{"name":"Kooky Plan","city":"Miami","state_code":"FL","location":{"type":"Point","coordinates":[-80.131287,25.896634]},"f_oldcomp":3,"near_airport":1},{"name":"Codemasters","city":"Universal City","state_code":"CA","location":{"type":"Point","coordinates":[-118.360617,34.138198]},"f_oldcomp":3,"near_airport":1},{"name":"Rhyme Library","city":"Louisville","state_code":"KY","location":{"type":"Point","coordinates":[-85.7617724,38.2571486]},"f_oldcomp":3,"near_airport":1},{"name":"DEAN Alert","city":"Louisville","state_code":"KY","location":{"type":"Point","coordinates":[-85.761772,38.257149]},"f_oldcomp":3,"near_airport":1},{"name":"RockDex","city":"Omaha","state_code":"NE","location":{"type":"Point","coordinates":[-95.942336,41.259751]},"f_oldcomp":3,"near_airport":1},{"name":"CPM Braxis","city":"Aventura","state_code":"FL","location":{"type":"Point","coordinates":[-80.146329,25.95606]},"f_oldcomp":3,"near_airport":1},{"name":"Sonya Labs","city":"Pittsburgh","state_code":"PA","location":{"type":"Point","coordinates":[-79.971877,40.4282777]},"f_oldcomp":3,"near_airport":1},{"name":"Compaq","city":"Miami","state_code":"FL","location":{"type":"Point","coordinates":[-80.2975002,25.7801864]},"f_oldcomp":3,"near_airport":1},{"name":"CBeyond","city":"Atlanta","state_code":"GA","location":{"type":"Point","coordinates":[-84.461941,33.894134]},"f_oldcomp":3,"near_airport":1},{"name":"BMC Software","city":"Houston","state_code":"TX","location":{"type":"Point","coordinates":[-95.3457921,29.7805488]},"f_oldcomp":3,"near_airport":1},{"name":"Superkix","city":"Aventura","state_code":"FL","location":{"type":"Point","coordinates":[-80.1277653,25.9609078]},"f_oldcomp":3,"near_airport":1},{"name":"Microsoft","city":"Boise","state_code":"ID","location":{"type":"Point","coordinates":[-116.209356,43.613184]},"f_oldcomp":3,"near_airport":1},{"name":"BladeLogic","city":"Houston","state_code":"TX","location":{"type":"Point","coordinates":[-95.3457921,29.7805488]},"f_oldcomp":3,"near_airport":1},{"name":"TypeFrag","city":"Mayfield Heights","state_code":"OH","location":{"type":"Point","coordinates":[-81.693716,41.499713]},"f_oldcomp":3,"near_airport":1},{"name":"Compaq","city":"Miami","state_code":"FL","location":{"type":"Point","coordinates":[-80.2975002,25.7801864]},"f_oldcomp":3,"near_airport":1},{"name":"Skytap","city":"Seattle","state_code":"WA","location":{"type":"Point","coordinates":[-122.334732,47.544341]},"f_oldcomp":3,"near_airport":1},{"name":"iKobo","city":"Atlanta","state_code":"GA","location":{"type":"Point","coordinates":[-84.464518,33.878814]},"f_oldcomp":3,"near_airport":1},{"name":"Maestro","city":"Atlanta","state_code":"GA","location":{"type":"Point","coordinates":[-84.409621,33.79802]},"f_oldcomp":3,"near_airport":1},{"name":"My Best Interest","city":"Goleta","state_code":"CA","location":{"type":"Point","coordinates":[-119.820537,34.433471]},"f_oldcomp":3,"near_airport":1},{"name":"My Best Interest","city":"Goleta","state_code":"CA","location":{"type":"Point","coordinates":[-119.820537,34.433471]},"f_oldcomp":3,"near_airport":1},{"name":"NanoInk","city":"Skokie","state_code":"IL","location":{"type":"Point","coordinates":[-87.749253,42.041574]},"f_oldcomp":3,"near_airport":1},{"name":"Express Employment Professionals-Denton, TX","city":"Lewisville","state_code":"TX","location":{"type":"Point","coordinates":[-97.010408,32.98972]},"f_oldcomp":3,"near_airport":1},{"name":"NetShops","city":"Omaha","state_code":"NE","location":{"type":"Point","coordinates":[-95.942336,41.259751]},"f_oldcomp":3,"near_airport":1},{"name":"Avisena","city":"Miami","state_code":"FL","location":{"type":"Point","coordinates":[-80.296794,25.782058]},"f_oldcomp":3,"near_airport":1},{"name":"kinDragon","city":"Sarasota","state_code":"FL","location":{"type":"Point","coordinates":[-82.5294065,27.4081935]},"f_oldcomp":3,"near_airport":1},{"name":"LockerDome","city":"St. Louis","state_code":"MO","location":{"type":"Point","coordinates":[-90.2598684,38.6501668]},"f_oldcomp":3,"near_airport":1},{"name":"Gay Ad Network","city":"Ft. Lauderdale","state_code":"FL","location":{"type":"Point","coordinates":[-80.18172,26.172111]},"f_oldcomp":3,"near_airport":1},{"name":"UniversalMarketingFirm","city":"Miami Gardens","state_code":"FL","location":{"type":"Point","coordinates":[-80.277438,25.939777]},"f_oldcomp":3,"near_airport":1},{"name":"RevJobs","city":"Santa Barbara","state_code":"CA","location":{"type":"Point","coordinates":[-119.8084281,34.4335255]},"f_oldcomp":3,"near_airport":1},{"name":"HelpMeTy","city":"New Brighton","state_code":"MN","location":{"type":"Point","coordinates":[-93.190885,45.045772]},"f_oldcomp":3,"near_airport":1},{"name":"Electronic Media Publishing","city":"St. Louis","state_code":"MO","location":{"type":"Point","coordinates":[-90.490704,38.570681]},"f_oldcomp":3,"near_airport":1},{"name":"LuckyDogJobs","city":"St Louis","state_code":"MO","location":{"type":"Point","coordinates":[-90.490704,38.570681]},"f_oldcomp":3,"near_airport":1},{"name":"WebSpace 4 Rent","city":"JACKSONVILLE","state_code":"FL","location":{"type":"Point","coordinates":[-81.6555,30.3318]},"f_oldcomp":3,"near_airport":1},{"name":"Lehigh Technologies","city":"Tucker","state_code":"GA","location":{"type":"Point","coordinates":[-81.80187,26.215648]},"f_oldcomp":3,"near_airport":1},{"name":"SEO Sumo","city":"Miami","state_code":"FL","location":{"type":"Point","coordinates":[-80.306331,25.723408]},"f_oldcomp":3,"near_airport":1},{"name":"MyWellnessSpace","city":"Sarasota","state_code":"FL","location":{"type":"Point","coordinates":[-82.527888,27.338536]},"f_oldcomp":3,"near_airport":1},{"name":"Compete-At","city":"Colorado Springs","state_code":"CO","location":{"type":"Point","coordinates":[-104.830775,38.927596]},"f_oldcomp":3,"near_airport":1},{"name":"SEO Komodo","city":"Miami Beach","state_code":"FL","location":{"type":"Point","coordinates":[-80.1210889,25.8636626]},"f_oldcomp":3,"near_airport":1},{"name":"Call Me Later","city":"Miami","state_code":"FL","location":{"type":"Point","coordinates":[-80.29413,25.916982]},"f_oldcomp":3,"near_airport":1},{"name":"Tell Me More","city":"Phoenix","state_code":"AZ","location":{"type":"Point","coordinates":[-112.001645,33.423392]},"f_oldcomp":3,"near_airport":1},{"name":"Boom Engine","city":"Louisville","state_code":"KY","location":{"type":"Point","coordinates":[-85.7617724,38.2571486]},"f_oldcomp":3,"near_airport":1},{"name":"Analytical Graphics","city":"Colorado Springs","state_code":"CO","location":{"type":"Point","coordinates":[-104.811366,38.934887]},"f_oldcomp":3,"near_airport":1},{"name":"Grain Management","city":"Sarasota","state_code":"FL","location":{"type":"Point","coordinates":[-82.5309605,27.3372319]},"f_oldcomp":3,"near_airport":1},{"name":"Cliqset","city":"Jacksonville","state_code":"FL","location":{"type":"Point","coordinates":[-81.657707,30.310978]},"f_oldcomp":3,"near_airport":1},{"name":"Silverpop","city":"Atlanta","state_code":"GA","location":{"type":"Point","coordinates":[-84.4655151,33.882526]},"f_oldcomp":3,"near_airport":1},{"name":"Accuity","city":"Skokie","state_code":"IL","location":{"type":"Point","coordinates":[-87.7435278,42.0551424]},"f_oldcomp":3,"near_airport":1},{"name":"LockerDome","city":"St. Louis","state_code":"MO","location":{"type":"Point","coordinates":[-90.2598684,38.6501668]},"f_oldcomp":3,"near_airport":1},{"name":"Waste Management","city":"Houston","state_code":"TX","location":{"type":"Point","coordinates":[-95.363912,29.755795]},"f_oldcomp":3,"near_airport":1},{"name":"MultiTech  Systems","city":"Mounds View","state_code":"MN","location":{"type":"Point","coordinates":[-93.1948447,45.0987788]},"f_oldcomp":3,"near_airport":1},{"name":"Vertical Acuity","city":"Atlanta","state_code":"GA","location":{"type":"Point","coordinates":[-84.4709443,33.8656817]},"f_oldcomp":3,"near_airport":1},{"name":"TwittBot","city":"Leawood","state_code":"KS","location":{"type":"Point","coordinates":[-94.616021,38.93842]},"f_oldcomp":3,"near_airport":1},{"name":"Slicehost","city":"Saint Louis","state_code":"MO","location":{"type":"Point","coordinates":[-90.2618399,38.640271]},"f_oldcomp":3,"near_airport":1},{"name":"Big Nerd Ranch","city":"Atlanta","state_code":"GA","location":{"type":"Point","coordinates":[-84.322038,33.76073]},"f_oldcomp":3,"near_airport":1},{"name":"Appfolio","city":"Goleta","state_code":"CA","location":{"type":"Point","coordinates":[-119.863565,34.433463]},"f_oldcomp":3,"near_airport":1},{"name":"CogniFit","city":"New York","state_code":"NY","location":{"type":"Point","coordinates":[-122.2850112,47.6023367]},"f_oldcomp":3,"near_airport":1},{"name":"Ifbyphone","city":"Chicago","state_code":"IL","location":{"type":"Point","coordinates":[-87.750643,42.040851]},"f_oldcomp":3,"near_airport":1},{"name":"Call Me Later","city":"Miami","state_code":"FL","location":{"type":"Point","coordinates":[-80.29413,25.916982]},"f_oldcomp":3,"near_airport":1},{"name":"Micron Technology","city":"Boise","state_code":"ID","location":{"type":"Point","coordinates":[-116.2048973,43.5926807]},"f_oldcomp":3,"near_airport":1},{"name":"CORPAK MedSystems","city":"Wheeling","state_code":"IL","location":{"type":"Point","coordinates":[-87.918273,42.1302189]},"f_oldcomp":3,"near_airport":2},{"name":"LoopFuse","city":"Atlanta","state_code":"GA","location":{"type":"Point","coordinates":[-84.44041,33.909439]},"f_oldcomp":3,"near_airport":1},{"name":"WebSpace 4 Rent","city":"JACKSONVILLE","state_code":"FL","location":{"type":"Point","coordinates":[-81.6555,30.3318]},"f_oldcomp":3,"near_airport":1},{"name":"Gen-Y Media","city":"Burlingame","state_code":"CA","location":{"type":"Point","coordinates":[-122.376572,37.598478]},"f_oldcomp":4,"near_airport":1},{"name":"ReferenceBot","city":"West Palm Beach","state_code":"FL","location":{"type":"Point","coordinates":[-80.0520862,26.706239]},"f_oldcomp":4,"near_airport":1},{"name":"Openfilm","city":"Miami","state_code":"FL","location":{"type":"Point","coordinates":[-80.166155,25.887462]},"f_oldcomp":4,"near_airport":1},{"name":"Pakt","city":null,"state_code":"CA","location":{"type":"Point","coordinates":[-118.441219,33.945553]},"f_oldcomp":4,"near_airport":1},{"name":"Gameleaper","city":"Dallas","state_code":"TX","location":{"type":"Point","coordinates":[-96.8432224,32.8270045]},"f_oldcomp":4,"near_airport":1},{"name":"American Safety Associates","city":"Miami","state_code":"FL","location":{"type":"Point","coordinates":[-80.23492,25.768671]},"f_oldcomp":4,"near_airport":1},{"name":"Intelligent Software Solutions","city":"Colorado Springs","state_code":"CO","location":{"type":"Point","coordinates":[-104.826367,38.9085036]},"f_oldcomp":4,"near_airport":1},{"name":"Trusera","city":"Seattle","state_code":"WA","location":{"type":"Point","coordinates":[-122.305994,47.617122]},"f_oldcomp":4,"near_airport":1},{"name":"XAware","city":"Colorado Springs","state_code":"CO","location":{"type":"Point","coordinates":[-104.827041,38.912262]},"f_oldcomp":4,"near_airport":1},{"name":"Remodel Connect","city":"Denver","state_code":"CO","location":{"type":"Point","coordinates":[-104.8571368,39.5633544]},"f_oldcomp":4,"near_airport":1},{"name":"Daddy Design","city":"Miami","state_code":"FL","location":{"type":"Point","coordinates":[-80.168399,25.873778]},"f_oldcomp":4,"near_airport":1},{"name":"Occam Networks","city":"Santa Barbara","state_code":"CA","location":{"type":"Point","coordinates":[-119.868037,34.431653]},"f_oldcomp":4,"near_airport":1},{"name":"Vacation Rentals AD","city":"Hollywood","state_code":"FL","location":{"type":"Point","coordinates":[-80.1512932,26.0113226]},"f_oldcomp":4,"near_airport":1},{"name":"Emerald Software Group","city":"Alpharetta","state_code":"GA","location":{"type":"Point","coordinates":[-84.272179,34.052162]},"f_oldcomp":4,"near_airport":1},{"name":"SI Government Solutions","city":"Melbourne","state_code":"FL","location":{"type":"Point","coordinates":[-80.6219825,28.1129468]},"f_oldcomp":4,"near_airport":1},{"name":"BestThinking","city":"Cary","state_code":"NC","location":{"type":"Point","coordinates":[-78.7865297,35.8299099]},"f_oldcomp":4,"near_airport":1},{"name":"IamStocks","city":"North Miami","state_code":"FL","location":{"type":"Point","coordinates":[-80.1622525,25.8945858]},"f_oldcomp":4,"near_airport":1},{"name":"MediaRich","city":"San Antonio","state_code":"TX","location":{"type":"Point","coordinates":[-98.48972,29.414897]},"f_oldcomp":4,"near_airport":1},{"name":"DS Media Labs","city":"Ocala","state_code":"FL","location":{"type":"Point","coordinates":[-80.052031,26.713034]},"f_oldcomp":4,"near_airport":1},{"name":"AbleNet","city":"North - Roseville","state_code":"MN","location":{"type":"Point","coordinates":[-93.1772495,45.0258237]},"f_oldcomp":4,"near_airport":1},{"name":"OpenZine","city":"Coral Gables","state_code":"FL","location":{"type":"Point","coordinates":[-80.235886,25.726688]},"f_oldcomp":4,"near_airport":1},{"name":"Sky Bird Travel  Tours","city":"Burlingame","state_code":"CA","location":{"type":"Point","coordinates":[-122.368281,37.599131]},"f_oldcomp":4,"near_airport":1},{"name":"The Radical Clarity Group","city":"Valley Village","state_code":"CA","location":{"type":"Point","coordinates":[-118.391352,34.164231]},"f_oldcomp":4,"near_airport":1},{"name":"Silicon Stratgies Marketing","city":"Melbourne","state_code":"FL","location":{"type":"Point","coordinates":[-80.625682,28.124078]},"f_oldcomp":4,"near_airport":1},{"name":"CanvasGrafix","city":"St. Louis","state_code":"MO","location":{"type":"Point","coordinates":[-90.482766,38.675833]},"f_oldcomp":4,"near_airport":1},{"name":"AuthenTec","city":"Melbourne","state_code":"FL","location":{"type":"Point","coordinates":[-80.623752,28.090351]},"f_oldcomp":4,"near_airport":1},{"name":"aCoolWorld","city":"Houston","state_code":"TX","location":{"type":"Point","coordinates":[-95.3633,29.7632]},"f_oldcomp":4,"near_airport":1},{"name":"OpenZine","city":"Coral Gables","state_code":"FL","location":{"type":"Point","coordinates":[-80.235886,25.726688]},"f_oldcomp":4,"near_airport":1},{"name":"Hidden City Games","city":"Seattle","state_code":"WA","location":{"type":"Point","coordinates":[-122.2848651,47.6026054]},"f_oldcomp":4,"near_airport":1},{"name":"Swell Pregnancy Guide","city":"Tempe","state_code":"AZ","location":{"type":"Point","coordinates":[-111.968932,33.420952]},"f_oldcomp":4,"near_airport":1},{"name":"Emerald Software Group","city":"Alpharetta","state_code":"GA","location":{"type":"Point","coordinates":[-84.272179,34.052162]},"f_oldcomp":4,"near_airport":1},{"name":"The Guild","city":"Madison","state_code":"WI","location":{"type":"Point","coordinates":[-89.37049,43.081862]},"f_oldcomp":4,"near_airport":1},{"name":"Wine by the Bar","city":"Cary","state_code":"NC","location":{"type":"Point","coordinates":[-78.792841,35.820177]},"f_oldcomp":4,"near_airport":1},{"name":"Blellow","city":"San Antonio","state_code":"TX","location":{"type":"Point","coordinates":[-98.48972,29.414897]},"f_oldcomp":4,"near_airport":1},{"name":"Qlubb","city":"Burlingame","state_code":"CA","location":{"type":"Point","coordinates":[-122.369448,37.567832]},"f_oldcomp":4,"near_airport":1},{"name":"IncSpring","city":"San Antonio","state_code":"TX","location":{"type":"Point","coordinates":[-98.488402,29.520005]},"f_oldcomp":4,"near_airport":1},{"name":"Erockster","city":"San Antonio","state_code":"TX","location":{"type":"Point","coordinates":[-98.481295,29.4915873]},"f_oldcomp":4,"near_airport":1},{"name":"ScanCafe","city":"Burlingame","state_code":"CA","location":{"type":"Point","coordinates":[-122.369676,37.592584]},"f_oldcomp":4,"near_airport":1},{"name":"IncSpring","city":"San Antonio","state_code":"TX","location":{"type":"Point","coordinates":[-98.488402,29.520005]},"f_oldcomp":4,"near_airport":1},{"name":"Customer FX Corporation","city":"St. Paul","state_code":"MN","location":{"type":"Point","coordinates":[-93.195934,44.96254]},"f_oldcomp":4,"near_airport":1},{"name":"Swell Pregnancy Guide","city":"Tempe","state_code":"AZ","location":{"type":"Point","coordinates":[-111.968932,33.420952]},"f_oldcomp":4,"near_airport":1},{"name":"Reachoo","city":"Pompano Beach","state_code":"FL","location":{"type":"Point","coordinates":[-80.135487,26.2480738]},"f_oldcomp":4,"near_airport":1},{"name":"Xavier Media","city":"Miami","state_code":"FL","location":{"type":"Point","coordinates":[-80.3101684,25.8235041]},"f_oldcomp":4,"near_airport":1},{"name":"MeDeploy","city":"Los Angeles","state_code":"CA","location":{"type":"Point","coordinates":[-118.3870991,34.1395597]},"f_oldcomp":4,"near_airport":1},{"name":"Cellware","city":"","state_code":"FL","location":{"type":"Point","coordinates":[-80.064158,26.524058]},"f_oldcomp":4,"near_airport":1},{"name":"Turbine Air Systems","city":"Houston","state_code":"TX","location":{"type":"Point","coordinates":[-95.3500171,29.6982817]},"f_oldcomp":4,"near_airport":1},{"name":"Open Television Network","city":"Burbank","state_code":"CA","location":{"type":"Point","coordinates":[-118.312902,34.169493]},"f_oldcomp":4,"near_airport":1},{"name":"MicroGiving","city":"Boyton Beach","state_code":"FL","location":{"type":"Point","coordinates":[-80.057157,26.527099]},"f_oldcomp":4,"near_airport":1},{"name":"Gorilla Nation Media","city":"Los Angeles","state_code":"CA","location":{"type":"Point","coordinates":[-118.368871,33.988735]},"f_oldcomp":4,"near_airport":1},{"name":"BrightDoor Systems","city":"Cary","state_code":"NC","location":{"type":"Point","coordinates":[-78.789358,35.828121]},"f_oldcomp":4,"near_airport":1},{"name":"MX Logic","city":"Englewood","state_code":"CO","location":{"type":"Point","coordinates":[-104.857271,39.540323]},"f_oldcomp":4,"near_airport":1},{"name":"SHUB","city":"Longmont","state_code":"CO","location":{"type":"Point","coordinates":[-95.362534,29.759956]},"f_oldcomp":4,"near_airport":1},{"name":"Gevo","city":"Englewood","state_code":"CO","location":{"type":"Point","coordinates":[-104.856898,39.558982]},"f_oldcomp":4,"near_airport":1},{"name":"MyToons","city":"San Antonio","state_code":"TX","location":{"type":"Point","coordinates":[-98.487764,29.427051]},"f_oldcomp":4,"near_airport":1},{"name":"RunE2E","city":"Alpharetta","state_code":"GA","location":{"type":"Point","coordinates":[-84.262072,34.078198]},"f_oldcomp":4,"near_airport":1},{"name":"AtomicOnline","city":"Los Angeles","state_code":"CA","location":{"type":"Point","coordinates":[-118.368871,33.988735]},"f_oldcomp":4,"near_airport":1},{"name":"SimpleSignal","city":"Denver","state_code":"CO","location":{"type":"Point","coordinates":[-104.86158,39.575875]},"f_oldcomp":4,"near_airport":1},{"name":"Yieldex","city":"New York","state_code":"NY","location":{"type":"Point","coordinates":[-122.42689,37.636288]},"f_oldcomp":5,"near_airport":1},{"name":"ZettaCore","city":"Englewood","state_code":"CO","location":{"type":"Point","coordinates":[-104.8656251,39.5604863]},"f_oldcomp":5,"near_airport":1},{"name":"Webgineers","city":"Irvine","state_code":"CA","location":{"type":"Point","coordinates":[-117.82052,33.684922]},"f_oldcomp":5,"near_airport":1},{"name":"Instagarage","city":"New Orleans","state_code":"LA","location":{"type":"Point","coordinates":[-90.065749,30.006694]},"f_oldcomp":5,"near_airport":2},{"name":"YouTube","city":"San Bruno","state_code":"CA","location":{"type":"Point","coordinates":[-122.426804,37.627971]},"f_oldcomp":5,"near_airport":1},{"name":"itsmylife","city":"Melbourne","state_code":"FL","location":{"type":"Point","coordinates":[-80.632606,28.074742]},"f_oldcomp":5,"near_airport":1},{"name":"Omega Legal Systems","city":"Phoenix","state_code":"AZ","location":{"type":"Point","coordinates":[-111.98694,33.492714]},"f_oldcomp":5,"near_airport":1},{"name":"Verio","city":"Centennial","state_code":"CO","location":{"type":"Point","coordinates":[-104.879833,39.626072]},"f_oldcomp":5,"near_airport":1},{"name":"QuickPen","city":"Englewood","state_code":"CO","location":{"type":"Point","coordinates":[-104.864733,39.563321]},"f_oldcomp":5,"near_airport":1},{"name":"Marketbright","city":"San Bruno","state_code":"CA","location":{"type":"Point","coordinates":[-122.422833,37.628933]},"f_oldcomp":5,"near_airport":1},{"name":"Qumu","city":"San Bruno","state_code":"CA","location":{"type":"Point","coordinates":[-122.422113,37.630551]},"f_oldcomp":5,"near_airport":1},{"name":"Marketbright","city":"San Bruno","state_code":"CA","location":{"type":"Point","coordinates":[-122.422833,37.628933]},"f_oldcomp":5,"near_airport":1},{"name":"TOFA - Token of Appreciation","city":"Lake Worth","state_code":"FL","location":{"type":"Point","coordinates":[-80.0590804,26.6188279]},"f_oldcomp":5,"near_airport":1},{"name":"MeFeedia","city":"Burbank","state_code":"CA","location":{"type":"Point","coordinates":[-118.335292,34.155869]},"f_oldcomp":5,"near_airport":1},{"name":"Woot","city":"Carrollton","state_code":"TX","location":{"type":"Point","coordinates":[-96.848836,33.020526]},"f_oldcomp":5,"near_airport":1},{"name":"Greenbox","city":"San Bruno","state_code":"CA","location":{"type":"Point","coordinates":[-122.422562,37.62815]},"f_oldcomp":5,"near_airport":1},{"name":"URockHard","city":"","state_code":"GA","location":{"type":"Point","coordinates":[-84.2756367,34.0424511]},"f_oldcomp":5,"near_airport":1},{"name":"Adify","city":"San Bruno","state_code":"CA","location":{"type":"Point","coordinates":[-122.424975,37.629393]},"f_oldcomp":5,"near_airport":1},{"name":"AdOn Network","city":"Tempe","state_code":"AZ","location":{"type":"Point","coordinates":[-111.9600942,33.445096]},"f_oldcomp":5,"near_airport":1},{"name":"Closed First Software","city":"Oakland Park","state_code":"FL","location":{"type":"Point","coordinates":[-80.132998,26.190637]},"f_oldcomp":5,"near_airport":1},{"name":"DigiSynd","city":"Burbank","state_code":"CA","location":{"type":"Point","coordinates":[-118.339013,34.152528]},"f_oldcomp":5,"near_airport":1},{"name":"Handmark","city":"Kansas City","state_code":"MO","location":{"type":"Point","coordinates":[-94.581908,39.103151]},"f_oldcomp":5,"near_airport":1},{"name":"Good Work Marketing And Design","city":"New Orleans","state_code":"LA","location":{"type":"Point","coordinates":[-90.0864572,29.9208049]},"f_oldcomp":5,"near_airport":2},{"name":"Snapseekers","city":"North Miami Beach","state_code":"FL","location":{"type":"Point","coordinates":[-80.168256,25.929683]},"f_oldcomp":5,"near_airport":1},{"name":"iLinc","city":"Phoenix","state_code":"AZ","location":{"type":"Point","coordinates":[-111.987001,33.482388]},"f_oldcomp":5,"near_airport":1},{"name":"Ethervision","city":"Evanston","state_code":"IL","location":{"type":"Point","coordinates":[-87.720068,42.062669]},"f_oldcomp":5,"near_airport":1},{"name":"Sitemasher","city":"Coral Gables","state_code":"FL","location":{"type":"Point","coordinates":[-80.271378,25.705057]},"f_oldcomp":5,"near_airport":1},{"name":"YTB","city":"Wood River","state_code":"IL","location":{"type":"Point","coordinates":[-90.069122,38.85872]},"f_oldcomp":5,"near_airport":2},{"name":"TradeKing","city":"Fort Lauderdale","state_code":"FL","location":{"type":"Point","coordinates":[-80.1343038,26.119102]},"f_oldcomp":5,"near_airport":1},{"name":"Planet Metrics","city":"San Bruno","state_code":"CA","location":{"type":"Point","coordinates":[-122.420814,37.628328]},"f_oldcomp":5,"near_airport":1},{"name":"Devicescape","city":"San Bruno","state_code":"CA","location":{"type":"Point","coordinates":[-122.424607,37.628518]},"f_oldcomp":5,"near_airport":1},{"name":"Pixorial","city":"Englewood","state_code":"CO","location":{"type":"Point","coordinates":[-104.879674,39.577565]},"f_oldcomp":5,"near_airport":1}]