[{"name":"Shopseen","city":"San Francisco","state_code":"CA","location":{"type":"Point","coordinates":[-122.214897,37.772323]},"f_oldcomp":2,"near_airport":1,"near_startup":27,"near_design":3},{"name":"Nibea","city":"Oakland","state_code":"CA","location":{"type":"Point","coordinates":[-122.214897,37.772323]},"f_oldcomp":2,"near_airport":1,"near_startup":27,"near_design":3},{"name":"Handipoints","city":"Oakland","state_code":"CA","location":{"type":"Point","coordinates":[-122.214897,37.772323]},"f_oldcomp":2,"near_airport":1,"near_startup":27,"near_design":3},{"name":"Singulex","city":"Alameda","state_code":"CA","location":{"type":"Point","coordinates":[-122.240937,37.723803]},"f_oldcomp":2,"near_airport":1,"near_startup":26,"near_design":4},{"name":"PINC Solutions","city":"Alameda","state_code":"CA","location":{"type":"Point","coordinates":[-122.243783,37.726339]},"f_oldcomp":2,"near_airport":1,"near_startup":26,"near_design":4},{"name":"Qlubb","city":"Burlingame","state_code":"CA","location":{"type":"Point","coordinates":[-122.369448,37.567832]},"f_oldcomp":4,"near_airport":1,"near_startup":22,"near_design":11},{"name":"Sky Bird Travel  Tours","city":"Burlingame","state_code":"CA","location":{"type":"Point","coordinates":[-122.368281,37.599131]},"f_oldcomp":4,"near_airport":1,"near_startup":22,"near_design":11},{"name":"ScanCafe","city":"Burlingame","state_code":"CA","location":{"type":"Point","coordinates":[-122.369676,37.592584]},"f_oldcomp":4,"near_airport":1,"near_startup":22,"near_design":10},{"name":"Gen-Y Media","city":"Burlingame","state_code":"CA","location":{"type":"Point","coordinates":[-122.376572,37.598478]},"f_oldcomp":4,"near_airport":1,"near_startup":21,"near_design":10},{"name":"XDx","city":"Brisbane","state_code":"CA","location":{"type":"Point","coordinates":[-122.4040269,37.691226]},"f_oldcomp":3,"near_airport":1,"near_startup":18,"near_design":51},{"name":"Yieldex","city":"New York","state_code":"NY","location":{"type":"Point","coordinates":[-122.42689,37.636288]},"f_oldcomp":5,"near_airport":1,"near_startup":18,"near_design":49},{"name":"Qumu","city":"San Bruno","state_code":"CA","location":{"type":"Point","coordinates":[-122.422113,37.630551]},"f_oldcomp":5,"near_airport":1,"near_startup":18,"near_design":43},{"name":"Adify","city":"San Bruno","state_code":"CA","location":{"type":"Point","coordinates":[-122.424975,37.629393]},"f_oldcomp":5,"near_airport":1,"near_startup":18,"near_design":40},{"name":"Greenbox","city":"San Bruno","state_code":"CA","location":{"type":"Point","coordinates":[-122.422562,37.62815]},"f_oldcomp":5,"near_airport":1,"near_startup":18,"near_design":40},{"name":"Marketbright","city":"San Bruno","state_code":"CA","location":{"type":"Point","coordinates":[-122.422833,37.628933]},"f_oldcomp":5,"near_airport":1,"near_startup":18,"near_design":40},{"name":"Marketbright","city":"San Bruno","state_code":"CA","location":{"type":"Point","coordinates":[-122.422833,37.628933]},"f_oldcomp":5,"near_airport":1,"near_startup":18,"near_design":40},{"name":"Planet Metrics","city":"San Bruno","state_code":"CA","location":{"type":"Point","coordinates":[-122.420814,37.628328]},"f_oldcomp":5,"near_airport":1,"near_startup":18,"near_design":40},{"name":"Devicescape","city":"San Bruno","state_code":"CA","location":{"type":"Point","coordinates":[-122.424607,37.628518]},"f_oldcomp":5,"near_airport":1,"near_startup":18,"near_design":40},{"name":"YouTube","city":"San Bruno","state_code":"CA","location":{"type":"Point","coordinates":[-122.426804,37.627971]},"f_oldcomp":5,"near_airport":1,"near_startup":18,"near_design":35},{"name":"Vocera Communications","city":"San Jose","state_code":"CA","location":{"type":"Point","coordinates":[-121.911101,37.3190224]},"f_oldcomp":2,"near_airport":1,"near_startup":16,"near_design":23}]